Nazwa;Typ;Latitude;Longitude;miasto;dzielnica
Szkoła Podstawowa nr 33 im. Stefana Banacha w Gdańsku;school;54.4209492;18.4790736;Gdańsk;Osowa
"Akademickie Liceum Ogólnokształcące ""Lingwista""";school;54.3607062;18.6448988;Gdańsk;Śródmieście
XXIV Liceum Ogólnokształcące im. Stefana Banacha;school;54.4208604;18.4791667;Gdańsk;Osowa
Szkoła Podstawowa nr 5 im. Jana Pawła II;school;54.4023481;18.6045206;Gdańsk;Zaspa-Rozstaje
XIV Liceum Ogólnokształcące im. Jana Pawła II;school;54.4020343;18.6042732;Gdańsk;Zaspa-Rozstaje
Szkoła Podstawowa Nr 87;school;54.3449666;18.8296102;Gdańsk;Wyspa Sobieszewska
Szkoła języków europejskich Universus;school;54.4221276;18.4782263;Gdańsk;Osowa
Szkoła Muzyczna 1 stopnia imienia Grażyny Bacewicz;school;54.37909;18.6060501;Gdańsk;Wrzeszcz Górny
Morska  Szkoła Podstawowa im.Aleksandra Doby w Gdańsku;school;54.3324116;18.5971177;Gdańsk;Chełm
Szkoła Podstawowa nr 37;school;54.4921665;18.4213202;Gdynia;Chwarzno-Wiczlino
Chrześcijańska Szkoła Montessori nr 2;school;54.3256758;18.6006044;Gdańsk;Ujeścisko - Łostowice
Szkoła Podstawowa nr 42;school;54.4723417;18.4970667;Gdynia;Karwiny
I Gdańskie Liceum Katolickie im. św. Wojciecha;school;54.3565722;18.5913228;Gdańsk;Piecki-Migowo
Katolicka Szkoła Podstawowa im. Św. Wojciecha;school;54.3565313;18.5915156;Gdańsk;Piecki-Migowo
Szkoła Podstawowa Mistrzostwa Sportowego nr 94;school;54.3525221;18.6738275;Gdańsk;Śródmieście
VI Liceum Ogólnokształcące im. Obrońców Helu;school;54.3522575;18.6738679;Gdańsk;Śródmieście
Państwowe Liceum Sztuk Plastycznych im. Magdaleny Abakanowicz;school;54.479672;18.5568982;Gdynia;Orłowo
Szkoła Podstawowa nr 42 w Gdańsku;school;54.3535085;18.6028627;Gdańsk;Suchanino
Szkoła Podstawowa nr 3;school;54.3403776;18.6222678;Gdańsk;Chełm
Technikum nr 1 w Gdańsku;school;54.360813;18.6104576;Gdańsk;Wrzeszcz Górny
Szkoła Branżowa I Stopnia nr 1 w Gdańsku;school;54.3607517;18.6104909;Gdańsk;Wrzeszcz Górny
Szkoła Podstawowa nr 70 z Oddziałami Sportowymi;school;54.3879163;18.5743712;Gdańsk;VII Dwór
9 Miesięcy;school;54.3919074;18.6004232;Gdańsk;Zaspa-Młyniec
Mental Arts;school;54.3686898;18.6382413;Gdańsk;Młyniska
"Przedszkole Niepubliczne ""Sokrates""";school;54.3503047;18.6253598;Gdańsk;Siedlce
"Niepubliczna Szkoła Podstawowa ""Sokrates""";school;54.3503372;18.6256426;Gdańsk;Siedlce
Szkoła Orka Surf;school;54.4354392;18.5832938;Sopot;
Szkoła Podstawowa nr 18;school;54.4052405;18.6447963;Gdańsk;Brzeźno
XXIII Liceum Ogólnokształcące;school;54.4049877;18.6445661;Gdańsk;Brzeźno
XII Sportowe Liceum Ogólnokształcące z Oddziałami Mistrzostwa Sportowego im. Janusza Kusocińskiego;school;54.4197647;18.5732553;Gdańsk;Żabianka-Wejhera-Jelitkowo-Tysiąclecia
Sportowa Szkoła Podstawowa nr 75 z Oddziałami Mistrzostwa Sportowego im. Janusza Kusocińskiego;school;54.4195351;18.5732251;Gdańsk;Żabianka-Wejhera-Jelitkowo-Tysiąclecia
VII Liceum Ogólnokształcące im. Józefa Wybickiego;school;54.3398368;18.6222562;Gdańsk;Chełm
Ogólnokształcąca Szkoła Baletowa im. Janiny Jarzynówny-Sobczak;school;54.3841204;18.6146271;Gdańsk;Wrzeszcz Dolny
Zespół Niepublicznych Placówek Oświatowych PSONI Koło w Gdańsku;school;54.4138899;18.5953061;Gdańsk;Przymorze Wielkie
Technikum Ekonomiczne z Oddziałami Dwujęzycznymi im. rotmistrza Witolda Pileckiego;school;54.4824079;18.5494315;Gdynia;Orłowo
Szkoła Podstawowa nr 92;school;54.395084;18.5957712;Gdańsk;Zaspa-Młyniec
Szkoła podstawowa ADE;school;54.2527636;18.6484009;Pruszcz Gdański;Komarowo
Szkoła Podstawowa nr 37;school;54.4882673;18.4289458;Gdynia;Chwarzno-Wiczlino
XVII Liceum Ogólnokształcące;school;54.4885961;18.4282672;Gdynia;Chwarzno-Wiczlino
Zespołu Szkół Specjalnych nr 6;school;54.4466823;18.5401494;Sopot;
Szkoła Podstawowa nr 49 dla Dzieci Niedosłyszących;school;54.4985567;18.5446161;Gdynia;Wzgórze Świętego Maksymiliana
Szkoła Podstawowa Nr 53;school;54.4986766;18.5445142;Gdynia;Wzgórze Świętego Maksymiliana
Szkoła Podstawowa nr 47;school;54.4713921;18.46129;Gdynia;Dąbrowa
Szkoła Podstawowa nr 46;school;54.4722073;18.48822;Gdynia;Karwiny
Szkoła Podstawowa nr 45;school;54.4727964;18.4685245;Gdynia;Dąbrowa
Technikum Handlowe;school;54.4823651;18.5492295;Gdynia;Orłowo
XV Liceum Ogólnokształcące dla Niedosłyszących im. Zjednoczonej Europy;school;54.4984508;18.5446966;Gdynia;Wzgórze Świętego Maksymiliana
Szkoła Podstawowa Montessori w Kowalach;school;54.3122088;18.5611466;Kowale;
Brak nazwy;kindergarten;54.4342366;18.5571803;Sopot;
Żłobek Puchatek;kindergarten;54.436948;18.5584275;Sopot;
Brak nazwy;kindergarten;54.3425302;18.5655726;Gdańsk;Jasień
Bajeczne Przedszkola;kindergarten;54.3427741;18.5506999;Gdańsk;Jasień
Przedszkole Niepubliczne CHATKA PUCHATKA;kindergarten;54.4742105;18.4889332;Gdynia;Karwiny
Chatka Przedszkolaka;kindergarten;54.4717516;18.4712589;Gdynia;Dąbrowa
Przedszkole pw. Świętej Rodziny;kindergarten;54.4770053;18.5401623;Gdynia;Orłowo
Wiszący Ogródek;kindergarten;54.3518258;18.5331573;Gdańsk;Jasień
Brak nazwy;kindergarten;54.3501497;18.5628412;Gdańsk;Piecki-Migowo
Słoneczny Ogród;kindergarten;54.3504225;18.5308403;Gdańsk;Jasień
Żłobek niepubliczny;kindergarten;54.4343091;18.5707067;Sopot;
Przedszkole Niepubliczne Bajkoland;kindergarten;54.3517583;18.5732062;Gdańsk;Piecki-Migowo
Morskie Przedszkole Niepubliczne;kindergarten;54.3326083;18.5972842;Gdańsk;Chełm
Brak nazwy;kindergarten;54.4965286;18.5431318;Gdynia;Redłowo
Przedszkole nr 50;kindergarten;54.473049;18.4684559;Gdynia;Dąbrowa
Przedszkole Stonoga;kindergarten;54.4729836;18.4888724;Gdynia;Karwiny
Tęczowa Przygoda;kindergarten;54.3946645;18.4023836;Banino;
Przedszkole nr 53;kindergarten;54.4922414;18.421294;Gdynia;Chwarzno-Wiczlino
Kotek Mamrotek;kindergarten;54.3313254;18.5574191;Gdańsk;Jasień
Iskierka;kindergarten;54.3664617;18.6301927;Gdańsk;Aniołki
Bajkowy Domek;kindergarten;54.3188757;18.5847376;Gdańsk;Ujeścisko - Łostowice
Przedszkole;kindergarten;54.3962371;18.5902802;Gdańsk;Zaspa-Młyniec
Przedszkole nr 54;kindergarten;54.4719921;18.4970531;Gdynia;Karwiny
Biały Kotek;kindergarten;54.4029158;18.570165;Gdańsk;Oliwa
Niezapominajka;kindergarten;54.3961417;18.4088279;Banino;
Chrześcijańskie Przedszkole Montessori nr 2;kindergarten;54.3257583;18.6007855;Gdańsk;Ujeścisko - Łostowice
Przedszkole Tygryskowa Kraina;kindergarten;54.3488274;18.5586746;Gdańsk;Piecki-Migowo
Brak nazwy;kindergarten;54.302214;18.5878042;Borkowo;
"Przedszkole niepubliczne ""Little Harvard""";kindergarten;54.4048997;18.575979;Gdańsk;Przymorze Małe
Przedszkolandia;kindergarten;54.391269;18.4062521;Banino;
Przedszkole Niepubliczne Językowo – Muzyczne Calineczka;kindergarten;54.3768597;18.605303;Gdańsk;Wrzeszcz Górny
MegaMocni;kindergarten;54.3971132;18.5950255;Gdańsk;Zaspa-Młyniec
"Przedszkole nr 4 ""Nad Potokiem""";kindergarten;54.4559738;18.5497015;Sopot;
Przedszkole Niepubliczne Akademia Małych Odkrywców;kindergarten;54.4991572;18.5421717;Gdynia;Wzgórze Świętego Maksymiliana
Przedszkole Montesori;kindergarten;54.455373;18.5521598;Sopot;
MegaMocni;kindergarten;54.355572;18.6148147;Gdańsk;Suchanino
Żyrafa;kindergarten;54.3836911;18.5912426;Gdańsk;Wrzeszcz Górny
Przedszkole ne 61;kindergarten;54.3451267;18.8298842;Gdańsk;Wyspa Sobieszewska
Niepubliczne Przedszkole Lew Leon;kindergarten;54.3760001;18.620545;Gdańsk;Wrzeszcz Górny
Przedszkole Specjalne Nr 72 o Profilu Terapeutycznym;kindergarten;54.4116454;18.5933336;Gdańsk;Przymorze Wielkie
Publiczne Pozytywne Przedszkole nr 7;kindergarten;54.3338377;18.5423695;Gdańsk;Jasień
Przedszkole nr 73 w Gdańsku;kindergarten;54.3534451;18.6028627;Gdańsk;Suchanino
Mali Zwyciezcy;kindergarten;54.3578366;18.5883182;Gdańsk;Piecki-Migowo
Wesoła kraina;kindergarten;54.3930634;18.6098754;Gdańsk;Zaspa-Rozstaje
Elf Kids;kindergarten;54.3503952;18.533923;Gdańsk;Jasień
Punkt Przedszkolny Słowiańska Wieża;kindergarten;54.4106215;18.6007285;Gdańsk;Przymorze Wielkie
Casa Mia;kindergarten;54.4369507;18.5613453;Sopot;
Przedszkole Niepubliczne Marchewka;kindergarten;54.3512182;18.5506996;Gdańsk;Jasień
Żłobek Koniczynka;kindergarten;54.4995891;18.5031294;Gdynia;Witomino
Przedszkole MoreLove;kindergarten;54.4098118;18.5973682;Gdańsk;Przymorze Wielkie
Smart Kids 2 - Nowa Letnica;kindergarten;54.3943141;18.6438143;Gdańsk;Letnica
No Stress;kindergarten;54.393207;18.6198333;Gdańsk;Wrzeszcz Dolny
Przedszkole publiczne Octopus;kindergarten;54.4309174;18.4783906;Gdańsk;Osowa
Przedszkole Martolandia;kindergarten;54.3491467;18.5821252;Gdańsk;Piecki-Migowo
Klub Dziecięcy Esy Floresy;kindergarten;54.3871865;18.5900125;Gdańsk;Strzyża
Smart Kids;kindergarten;54.3509511;18.5865927;Gdańsk;Piecki-Migowo
Teddy;kindergarten;54.3637033;18.5823821;Gdańsk;Piecki-Migowo
Leśny Żłobek i Przedszkole;kindergarten;54.3638556;18.5824706;Gdańsk;Piecki-Migowo
Korczakowe Love;kindergarten;54.4737823;18.4620134;Gdynia;Dąbrowa
Dzieci z Pasją;kindergarten;54.4735978;18.4623911;Gdynia;Dąbrowa
Fantazja;kindergarten;54.3590583;18.5823363;Gdańsk;Piecki-Migowo
A-KuKu;kindergarten;54.3824285;18.5861305;Gdańsk;Wrzeszcz Górny
MegaMocni;kindergarten;54.4725957;18.5148428;Gdynia;Mały Kack
MegaMocni;kindergarten;54.3846955;18.5814269;Gdańsk;Strzyża
Smykowo;kindergarten;54.3816765;18.5863731;Gdańsk;Wrzeszcz Górny
Nadmorskie Przedszkole Montessori;kindergarten;54.422224;18.589851;Gdańsk;Żabianka-Wejhera-Jelitkowo-Tysiąclecia
Bursztynowy Kompas;kindergarten;54.3899408;18.6422418;Gdańsk;Letnica
MegaMocni;kindergarten;54.3675322;18.692105;Gdańsk;Stogi
MegaMocni;kindergarten;54.3233446;18.5521908;Gdańsk;Jasień
MegaMocni;kindergarten;54.3689375;18.6106721;Gdańsk;Wrzeszcz Górny
Przedszkole Fahrenheita;kindergarten;54.3489965;18.5669532;Gdańsk;Piecki-Migowo
Brak nazwy;kindergarten;54.3274068;18.591203;Gdańsk;Ujeścisko - Łostowice
Wpływ Natury;kindergarten;54.2918115;18.5201825;Lublewo Gdańskie;
Wesoła Kraina;kindergarten;54.4015502;18.6478183;Gdańsk;Letnica
Wymarzone Przedszkole;kindergarten;54.4004946;18.6468606;Gdańsk;Letnica
Stumilowy las;kindergarten;54.4686359;18.50795;Gdynia;Wielki Kack
Publiczne Pozytywne Przedszkole nr 9;kindergarten;54.3575218;18.4914934;Gdańsk;Kokoszki
Przedszkole nr 13;kindergarten;54.3946819;18.5962835;Gdańsk;Zaspa-Młyniec
Stacja Edukacja;kindergarten;54.426312;18.4809347;Gdańsk;Osowa
Kolorowe Gniazdko;kindergarten;54.4188319;18.4812209;Gdańsk;Osowa
Kolorowe Gniazdko;kindergarten;54.4187321;18.4812579;Gdańsk;Osowa
Przedszkole nr 59;kindergarten;54.4887612;18.4298739;Gdynia;Chwarzno-Wiczlino
Publiczne przedszkole Muszelka;kindergarten;54.2589345;18.6352379;Pruszcz Gdański;Śródmieście
Brak nazwy;kindergarten;54.4483288;18.5417157;Sopot;
Przedszkole Misia Wojtka;kindergarten;54.3599806;18.5905319;Gdańsk;Piecki-Migowo
Żłobek A-Kuku;kindergarten;54.3336749;18.5429945;Gdańsk;Jasień
Przedszkole Niepubliczne Królestwo Fantazji;kindergarten;54.3670367;18.5958459;Gdańsk;Wrzeszcz Górny
Przedszkole Mali Przyjaciele;kindergarten;54.3330518;18.5868166;Gdańsk;Ujeścisko - Łostowice
Przedszkole nr 55;kindergarten;54.4713953;18.4608861;Gdynia;Dąbrowa
Przedszkole nr 57;kindergarten;54.4722166;18.4876567;Gdynia;Karwiny
Skrawek Nieba;kindergarten;54.3123496;18.5608207;Kowale;
Słoneczna Kraina;kindergarten;54.4292223;18.4723793;Gdańsk;Osowa
Lewiatan;supermarket;54.439393;18.5729975;Sopot;
Kaufland;supermarket;54.3368014;18.6205902;Gdańsk;Chełm
No Name;supermarket;54.4155953;18.5979086;Gdańsk;Przymorze Wielkie
Biedronka;supermarket;54.3553014;18.6503589;Gdańsk;Śródmieście
Eurospar;supermarket;54.3770118;18.6074553;Gdańsk;Wrzeszcz Górny
Biedronka;supermarket;54.261147;18.6383328;Pruszcz Gdański;Śródmieście
Stokrotka;supermarket;54.3021479;18.5772366;Borkowo;
Carrefour;supermarket;54.3219619;18.5503771;Gdańsk;Jasień
Spar;supermarket;54.3297313;18.6040263;Gdańsk;Chełm
Lidl;supermarket;54.3226414;18.5529299;Gdańsk;Jasień
Biedronka;supermarket;54.3472388;18.6628918;Gdańsk;Śródmieście
Biedronka;supermarket;54.3250123;18.617673;Gdańsk;Orunia Górna - Gdańsk Południe
Max & Xavier;supermarket;54.313937;18.570369;Gdańsk;Ujeścisko - Łostowice
Biedronka;supermarket;54.3510106;18.5561152;Gdańsk;Piecki-Migowo
Biedronka;supermarket;54.4570176;18.552478;Sopot;
E.Leclerc;supermarket;54.4100426;18.5918995;Gdańsk;Przymorze Wielkie
Biedronka;supermarket;54.4692831;18.4687901;Gdynia;Dąbrowa
Netto;supermarket;54.3107981;18.5676141;Kowale;
Brak nazwy;supermarket;54.39327;18.40606;Banino;
Biedronka;supermarket;54.3891766;18.5899493;Gdańsk;Strzyża
Biedronka;supermarket;54.4048801;18.6254803;Gdańsk;Brzeźno
Biedronka;supermarket;54.4910864;18.5422766;Gdynia;Redłowo
Misiek;supermarket;54.4970936;18.4395427;Gdynia;Chwarzno-Wiczlino
Biedronka;supermarket;54.4450078;18.559638;Sopot;
Lewiatan;supermarket;54.3608648;18.7116633;Gdańsk;Stogi
Biedronka;supermarket;54.3547241;18.6462955;Gdańsk;Śródmieście
Lidl;supermarket;54.4330932;18.5625748;Sopot;
Eurospar;supermarket;54.4018185;18.5746007;Gdańsk;Oliwa
Biedronka;supermarket;54.3781194;18.6062493;Gdańsk;Wrzeszcz Górny
Biedronka;supermarket;54.4119539;18.6023153;Gdańsk;Przymorze Wielkie
Biedronka;supermarket;54.3884604;18.6230299;Gdańsk;Wrzeszcz Dolny
Biedronka;supermarket;54.4085342;18.5673522;Gdańsk;Oliwa
Biedronka;supermarket;54.3511862;18.6547489;Gdańsk;Śródmieście
Biedronka;supermarket;54.3817881;18.6083354;Gdańsk;Wrzeszcz Dolny
Biedronka;supermarket;54.3176085;18.5686315;Gdańsk;Ujeścisko - Łostowice
Auchan;supermarket;54.4258779;18.4919627;Gdańsk;Osowa
Netto;supermarket;54.3212646;18.5972519;Gdańsk;Ujeścisko - Łostowice
Auchan;supermarket;54.3511122;18.5255688;Gdańsk;Jasień
Biedronka;supermarket;54.3504043;18.6323501;Gdańsk;Siedlce
Netto;supermarket;54.2697137;18.4685345;Kolbudy;
Livio;supermarket;54.4002395;18.6610529;Gdańsk;Nowy Port
Biedronka;supermarket;54.3379811;18.6258351;Gdańsk;Chełm
Stokrotka;supermarket;54.3415913;18.5617026;Gdańsk;Jasień
Biedronka;supermarket;54.3460254;18.5931979;Gdańsk;Ujeścisko - Łostowice
Polo Market;supermarket;54.4326191;18.4803645;Gdańsk;Osowa
Biedronka;supermarket;54.3376127;18.6126023;Gdańsk;Chełm
Biedronka;supermarket;54.3213969;18.6311909;Gdańsk;Orunia - Święty Wojciech - Lipce
Biedronka;supermarket;54.4126986;18.5915819;Gdańsk;Przymorze Wielkie
Biedronka;supermarket;54.3995993;18.6603358;Gdańsk;Nowy Port
Biedronka;supermarket;54.3994729;18.6694566;Gdańsk;Nowy Port
Biedronka;supermarket;54.3905061;18.6126678;Gdańsk;Zaspa-Rozstaje
Biedronka;supermarket;54.4041641;18.6011225;Gdańsk;Przymorze Wielkie
Carrefour;supermarket;54.3530378;18.5928046;Gdańsk;Siedlce
Lewiatan;supermarket;54.4373557;18.5713306;Sopot;
Max & Xavier;supermarket;54.2754266;18.5854612;Straszyn;
Biedronka;supermarket;54.3932267;18.6178448;Gdańsk;Wrzeszcz Dolny
Max & Xavier;supermarket;54.3591881;18.5775615;Gdańsk;Piecki-Migowo
Delikatesy Mini;supermarket;54.3304359;18.6074032;Gdańsk;Chełm
Max & Xavier;supermarket;54.4427392;18.4162944;Chwaszczyno;
Auchan;supermarket;54.4967259;18.5404157;Gdynia;Redłowo
Biedronka;supermarket;54.4103436;18.573008;Gdańsk;Przymorze Małe
Stokrotka;supermarket;54.3114344;18.5968878;Gdańsk;Orunia Górna - Gdańsk Południe
Lidl;supermarket;54.4096493;18.5683233;Gdańsk;Oliwa
Eurospar;supermarket;54.3485773;18.644142;Gdańsk;Śródmieście
Lidl;supermarket;54.3935028;18.4035701;Banino;
123market.pl;supermarket;54.485833;18.4317255;Gdynia;Chwarzno-Wiczlino
Brak nazwy;supermarket;54.3984768;18.6094804;Gdańsk;Zaspa-Rozstaje
Delikatesy Fart;supermarket;54.2609888;18.625502;Pruszcz Gdański;Śródmieście
Biedronka;supermarket;54.3830897;18.5922132;Gdańsk;Wrzeszcz Górny
Biedronka;supermarket;54.4122189;18.5865321;Gdańsk;Przymorze Małe
Delikatesy Centrum;supermarket;54.2696231;18.6100005;Rotmanka;
Stokrotka;supermarket;54.4128508;18.5976274;Gdańsk;Przymorze Wielkie
Biedronka;supermarket;54.3540676;18.606916;Gdańsk;Suchanino
Biedronka;supermarket;54.3935015;18.402054;Banino;
Mercus;supermarket;54.4572058;18.534704;Sopot;Brodwino
Sieć 34;supermarket;54.4936991;18.5496717;Gdynia;Redłowo
Carrefour;supermarket;54.3827461;18.6006806;Gdańsk;Wrzeszcz Górny
Max & Xavier;supermarket;54.4725369;18.5150986;Gdynia;Mały Kack
ALDI;supermarket;54.3555579;18.6141783;Gdańsk;Suchanino
ALDI;supermarket;54.3554831;18.649445;Gdańsk;Śródmieście
Netto;supermarket;54.3566278;18.6486052;Gdańsk;Śródmieście
EkoSopot;supermarket;54.4378152;18.5712527;Sopot;
Intermarché;supermarket;54.3899413;18.6104913;Gdańsk;Wrzeszcz Dolny
Lewiatan;supermarket;54.3494109;18.612604;Gdańsk;Siedlce
Merkus;supermarket;54.3827278;18.6045825;Gdańsk;Wrzeszcz Dolny
Stokrotka Market;supermarket;54.3337694;18.5425754;Gdańsk;Jasień
Biedronka;supermarket;54.3939582;18.6441654;Gdańsk;Letnica
Delikatesy Fart;supermarket;54.2752796;18.4760347;Kolbudy;
Lewiatan;supermarket;54.2694102;18.4658782;Kolbudy;
Auchan;supermarket;54.3717795;18.5194153;Gdańsk;Matarnia
Biedronka;supermarket;54.4194269;18.4694767;Gdańsk;Osowa
Netto;supermarket;54.4102131;18.6002976;Gdańsk;Przymorze Wielkie
Merkus;supermarket;54.4675013;18.4876321;Gdynia;Wielki Kack
Netto;supermarket;54.2676379;18.6267108;Pruszcz Gdański;Śródmieście
Stokrotka Market;supermarket;54.4989161;18.5080932;Gdynia;Witomino
Stokrotka Market;supermarket;54.40648;18.5843856;Gdańsk;Przymorze Małe
Biedronka;supermarket;54.3966741;18.6053752;Gdańsk;Zaspa-Rozstaje
Sklep Po Drodze limonka;supermarket;54.3639053;18.4345911;Czaple;
ALDI;supermarket;54.4972553;18.4374404;Gdynia;Chwarzno-Wiczlino
Biedronka;supermarket;54.3603981;18.5911574;Gdańsk;Piecki-Migowo
ALDI;supermarket;54.3580834;18.5822656;Gdańsk;Piecki-Migowo
Merkus;supermarket;54.3928551;18.5962922;Gdańsk;Zaspa-Młyniec
Dino;supermarket;54.302059;18.5905632;Borkowo;
Market Kami;supermarket;54.4996495;18.5056894;Gdynia;Witomino
Eurospar;supermarket;54.4046611;18.588443;Gdańsk;Przymorze Małe
Aldi;supermarket;54.4423916;18.5576463;Sopot;
Stokrotka;supermarket;54.489139;18.4275691;Gdynia;Chwarzno-Wiczlino
Drogeria abcKosmetyczne.pl;supermarket;54.3929747;18.6444449;Gdańsk;Letnica
Biedronka;supermarket;54.4615125;18.4504777;Gdynia;Dąbrowa
Biedronka;supermarket;54.3281736;18.6115793;Gdańsk;Chełm
Max & Xavier;supermarket;54.2736457;18.5832812;Straszyn;
Biedronka;supermarket;54.431792;18.4705912;Gdańsk;Osowa
Centrum Medyczne Kardiotel;clinic;54.4335931;18.5672077;Sopot;
Blikpol;clinic;54.4446093;18.5659864;Sopot;
LUXMED;clinic;54.3648117;18.6357133;Gdańsk;Aniołki
Medycyna Rodzinna;clinic;54.3341968;18.591511;Gdańsk;Ujeścisko - Łostowice
Kalina;clinic;54.3522927;18.5136521;Gdańsk;Kokoszki
Oddział Reumatologiczny;clinic;54.4447578;18.5696349;Sopot;
przychodnia przyszpitalna;clinic;54.3501781;18.6351745;Gdańsk;Siedlce
Klinika Medycyny Hiperbarycznej;clinic;54.4888281;18.5503388;Gdynia;Redłowo
Zakład Balneologii / Rehabilitacji;clinic;54.4452435;18.5701006;Sopot;
Wielospecjalistyczny Oddział Zabiegowy;clinic;54.3521803;18.6356032;Gdańsk;Siedlce
Klinika Ginekologii;clinic;54.3654466;18.6217575;Gdańsk;Aniołki
Klinika Położnictwa;clinic;54.3655783;18.6222328;Gdańsk;Aniołki
Klinika Neonatologii;clinic;54.3655868;18.6226858;Gdańsk;Aniołki
ZOZ Trójmiejskie Centrum Medyczne;clinic;54.3818277;18.6113303;Gdańsk;Wrzeszcz Dolny
K2 Medical & Dental Clinic;clinic;54.3838878;18.6081778;Gdańsk;Wrzeszcz Dolny
Profim;clinic;54.3785714;18.6078041;Gdańsk;Wrzeszcz Górny
Wielospecjalistyczna Przychodnia Lekarze Specjaliści;clinic;54.3552353;18.6473549;Gdańsk;Śródmieście
Psychotalerz;clinic;54.4993405;18.4396275;Gdynia;Chwarzno-Wiczlino
Pure Perfection;clinic;54.4998696;18.4326456;Gdynia;Chwarzno-Wiczlino
RCKiK w Gdańsku OT Gdynia;clinic;54.4884869;18.5494663;Gdynia;Redłowo
Mała Klinika;clinic;54.3478598;18.6164845;Gdańsk;Siedlce
Podolog Letnica. Magdalena Kosecka;clinic;54.395259;18.6431362;Gdańsk;Letnica
Przychodnia STARMED Letnica;clinic;54.3940921;18.6468261;Gdańsk;Letnica
VitalMed Clinic;clinic;54.3942106;18.6467781;Gdańsk;Letnica
Przychodnia ETERMED;clinic;54.2750971;18.5783468;Straszyn;
Dekerta;clinic;54.3813424;18.5980688;Gdańsk;Wrzeszcz Górny
SOR;clinic;54.3511674;18.6388434;Gdańsk;Siedlce
Novum Medica;clinic;54.4307854;18.4783231;Gdańsk;Osowa
NZOZ Cor-Gyn;clinic;54.3799288;18.5986225;Gdańsk;Wrzeszcz Górny
Morenova Klinika;clinic;54.3507569;18.5881691;Gdańsk;Piecki-Migowo
Wyspa Medycyny Przyjaznej;clinic;54.3422286;18.6547713;Gdańsk;Śródmieście
Klinika Bałtycka;clinic;54.3963994;18.6439934;Gdańsk;Letnica
Royal Med Clinic;clinic;54.4808385;18.5523285;Gdynia;Orłowo
Bianco Clinic;clinic;54.465666;18.4601976;Gdynia;Dąbrowa
"Niepubliczny Zakład Opieki Zdrowotnej ""Stogi""";clinic;54.3611244;18.7136965;Gdańsk;Stogi
Klinika Psychiatrii Dorosłych;clinic;54.3663055;18.6223862;Gdańsk;Aniołki
NZOZ Przychodnia Morena;clinic;54.3583657;18.5860152;Gdańsk;Piecki-Migowo
Good Life Clinic;clinic;54.3394149;18.5557772;Gdańsk;Jasień
Alfa Clinic;clinic;54.3514086;18.551277;Gdańsk;Jasień
Audika;clinic;54.3911043;18.5905371;Gdańsk;Zaspa-Młyniec
Jutro Medical;clinic;54.3766653;18.6126154;Gdańsk;Wrzeszcz Górny
Nowy Chełm;clinic;54.4479754;18.5437664;Sopot;
Bona Centrum Zdrowia;clinic;54.4032419;18.5818004;Gdańsk;Przymorze Małe
Centrum Medyczne Smoluchowskiego;hospital;54.3642847;18.6175719;Gdańsk;Aniołki
Starogardzka 01;stop_position;54.301894;18.6082389;Gdańsk;Orunia Górna - Gdańsk Południe
Czapielsk, Skrzyżowanie;stop_position;54.2636215;18.4282819;Babidół;
Kmicica (NŻ);stop_position;54.4990118;18.415854;Gdynia;Chwarzno-Wiczlino
Leźno, Remiza;stop_position;54.3476074;18.4373393;Leźno;
Miszewskiego 02;stop_position;54.3757843;18.6151527;Gdańsk;Wrzeszcz Górny
Klonowa;stop_position;54.3798817;18.6030332;Gdańsk;Wrzeszcz Górny
Galeria Bałtycka 02;stop_position;54.3820718;18.5989616;Gdańsk;Wrzeszcz Górny
Wojska Polskiego 02;stop_position;54.3870466;18.5907756;Gdańsk;Strzyża
Oliwa 02;stop_position;54.4099191;18.5659212;Gdańsk;Oliwa
Obrońców Westerplatte 01;stop_position;54.4083748;18.5629806;Gdańsk;Oliwa
Oliwa 01;stop_position;54.4100121;18.5671004;Gdańsk;Oliwa
Derdowskiego 01;stop_position;54.4050693;18.563912;Gdańsk;Oliwa
Tetmajera 01;stop_position;54.4027016;18.5656803;Gdańsk;Oliwa
Bażyńskiego 01;stop_position;54.3988472;18.5686061;Gdańsk;Oliwa
Uniwersytet Gdański 01;stop_position;54.3958038;18.5716415;Gdańsk;Oliwa
Strzyża PKM 01;stop_position;54.3913813;18.5774228;Gdańsk;VII Dwór
Wilka-Krzyżanowskiego 02;stop_position;54.3882328;18.5818847;Gdańsk;Strzyża
Zamenhofa 02;stop_position;54.3869117;18.5855082;Gdańsk;Strzyża
Sarnia 01;stop_position;54.4162056;18.5585266;Gdańsk;Oliwa
Jelitkowo 05;stop_position;54.4231713;18.5939769;Gdańsk;Żabianka-Wejhera-Jelitkowo-Tysiąclecia
"Sopot Sanatorium ""Leśnik"" 01";stop_position;54.4493714;18.527337;Sopot;
Wejherowska 02;stop_position;54.4530146;18.5553947;Sopot;
Kamienny Potok - Kościół 01;stop_position;54.4569407;18.5451407;Sopot;
Kamienny Potok SKM 03;stop_position;54.4569807;18.552769;Sopot;
Źródło Marii 01;stop_position;54.4698996;18.4972786;Gdynia;Wielki Kack
Stawna;stop_position;54.4943907;18.5078741;Gdynia;Witomino
Płyta Redłowska 04;stop_position;54.4918249;18.5523493;Gdynia;Redłowo
Lipowa 01;stop_position;54.4701085;18.4908031;Gdynia;Wielki Kack
Brzechwy;stop_position;54.4736785;18.4896054;Gdynia;Karwiny
Kameliowa 01;stop_position;54.4708168;18.4679359;Gdynia;Dąbrowa
Szafranowa 02;stop_position;54.4652857;18.460265;Gdynia;Dąbrowa
Nawigatorów 02;stop_position;54.4823888;18.5499938;Gdynia;Orłowo
Zwycięstwa - Wielkopolska 02;stop_position;54.4844789;18.5464061;Gdynia;Orłowo
Kolibki 02;stop_position;54.4732226;18.553925;Gdynia;Orłowo
Pomorskie Szkoły Rzemiosł 02;stop_position;54.3621068;18.6111857;Gdańsk;Wrzeszcz Górny
Brama Oliwska 03;stop_position;54.3622255;18.641825;Gdańsk;Aniołki
Mostek 01;stop_position;54.3492354;18.6743944;Gdańsk;Śródmieście
Węzeł Elbląska 02;stop_position;54.3490068;18.6921512;Gdańsk;Rudniki
Park Naukowo - Technologiczny;stop_position;54.3546602;18.595644;Gdańsk;Suchanino
Dolne Młyny 01;stop_position;54.3665617;18.5685614;Gdańsk;Brętowo
Dom Pomocy Społecznej 02;stop_position;54.3099518;18.6199795;Gdańsk;Orunia - Święty Wojciech - Lipce
Brama Wyżynna 04;stop_position;54.3502693;18.6458053;Gdańsk;Śródmieście
Przywidzka 02;stop_position;54.3242906;18.5477498;Gdańsk;Jasień
Sobieszewska Pastwa 2 02;stop_position;54.3125822;18.8734252;Gdańsk;Wyspa Sobieszewska
Opacka 04;stop_position;54.4137094;18.5661658;Gdańsk;Oliwa
Zaroślak 02;stop_position;54.3417563;18.6424312;Gdańsk;Orunia - Święty Wojciech - Lipce
Chłopska 02;stop_position;54.4084337;18.5909614;Gdańsk;Przymorze Wielkie
Gdańsk Politechnika;stop_position;54.3741384;18.627363;Gdańsk;Aniołki
Gdańsk Główny;stop_position;54.3562744;18.6438291;Gdańsk;Śródmieście
Gdynia Karwiny;stop_position;54.4698847;18.508883;Gdynia;Mały Kack
Wiczlino - Działki I;stop_position;54.4818119;18.4372719;Gdynia;Chwarzno-Wiczlino
Płyta Redłowska 02;stop_position;54.4916556;18.55299;Gdynia;Redłowo
Strzyża PKM 03;stop_position;54.3910936;18.5781583;Gdańsk;Strzyża
Latarnia Morska;stop_position;54.4071694;18.6613633;Gdańsk;Przeróbka
Westerplatte;stop_position;54.402948;18.6809517;Gdańsk;Przeróbka
Brama Oliwska;stop_position;54.3620657;18.6415532;Gdańsk;Aniołki
Akademia Muzyczna;stop_position;54.3446147;18.6641921;Gdańsk;Śródmieście
Brama Żuławska;stop_position;54.3476663;18.6693516;Gdańsk;Śródmieście
Piecewska;stop_position;54.3583379;18.5870129;Gdańsk;Piecki-Migowo
Wiczlino - Skrzyżowanie 02;stop_position;54.4906745;18.4238533;Gdynia;Chwarzno-Wiczlino
Brama Wyżynna;stop_position;54.3504006;18.6460295;Gdańsk;Śródmieście
Okopowa;stop_position;54.3475698;18.6463088;Gdańsk;Śródmieście
Żabi Kruk;stop_position;54.3465988;18.6515297;Gdańsk;Śródmieście
Chmielna 01;stop_position;54.3454629;18.6570763;Gdańsk;Śródmieście
Plac Solidarności 02;stop_position;54.3603015;18.6479495;Gdańsk;Śródmieście
Hucisko;stop_position;54.351887;18.644998;Gdańsk;Śródmieście
Dworzec PKS;stop_position;54.3569744;18.6434415;Gdańsk;Śródmieście
Mazurska;stop_position;54.4084792;18.6320361;Gdańsk;Brzeźno
Subisława;stop_position;54.416718;18.5732595;Gdańsk;Żabianka-Wejhera-Jelitkowo-Tysiąclecia
Jelitkowo;stop_position;54.4232354;18.5926832;Gdańsk;Żabianka-Wejhera-Jelitkowo-Tysiąclecia
Bieszczadzka 02 (ŃŻ);stop_position;54.452402;18.4534094;Gdynia;Wielki Kack
Hucisko 03;stop_position;54.3517838;18.6443363;Gdańsk;Śródmieście
Chodowieckiego;stop_position;54.3639912;18.6383444;Gdańsk;Aniołki
Chełm Cienista 02;stop_position;54.3376167;18.6261785;Gdańsk;Chełm
Osowa PKP 02;stop_position;54.4207136;18.4519659;Gdańsk;Osowa
Niedźwiednik 01;stop_position;54.3800689;18.5594349;Gdańsk;Brętowo
Wczasy;stop_position;54.4091113;18.6280738;Gdańsk;Brzeźno
Reja;stop_position;54.3791802;18.6224499;Gdańsk;Wrzeszcz Dolny
Mickiewicza 02;stop_position;54.3827163;18.6218367;Gdańsk;Wrzeszcz Dolny
Kościuszki;stop_position;54.3883351;18.6224352;Gdańsk;Wrzeszcz Dolny
Dworska;stop_position;54.4048783;18.6247121;Gdańsk;Brzeźno
Wyspiańskiego;stop_position;54.3763292;18.6235692;Gdańsk;Wrzeszcz Dolny
Politechnika SKM 02;stop_position;54.3753925;18.6266951;Gdańsk;Wrzeszcz Dolny
Jana Pawła II;stop_position;54.3943199;18.6020306;Gdańsk;Zaspa-Rozstaje
Politechnika;stop_position;54.3740245;18.6214115;Gdańsk;Wrzeszcz Górny
Zaspa 04;stop_position;54.3992091;18.5950553;Gdańsk;Zaspa-Rozstaje
Bajana 02;stop_position;54.3896857;18.6084526;Gdańsk;Zaspa-Rozstaje
Żwirki i Wigury 01;stop_position;54.3921141;18.6058041;Gdańsk;Zaspa-Rozstaje
Plac Komorowskiego 01;stop_position;54.3837496;18.614411;Gdańsk;Wrzeszcz Dolny
Swojska 02;stop_position;54.3787445;18.6331605;Gdańsk;Młyniska
Śnieżna 02;stop_position;54.392257;18.6576846;Gdańsk;Letnica
Marynarki Polskiej 01;stop_position;54.3985821;18.6665651;Gdańsk;Nowy Port
Stocznia SKM;stop_position;54.3645819;18.6427422;Gdańsk;Młyniska
Hynka 01;stop_position;54.3969774;18.5887651;Gdańsk;Zaspa-Młyniec
Hynka 02;stop_position;54.3966844;18.5880923;Gdańsk;Zaspa-Młyniec
Gościnna 02;stop_position;54.3232099;18.631431;Gdańsk;Orunia - Święty Wojciech - Lipce
Gościnna 01;stop_position;54.3233064;18.6316514;Gdańsk;Orunia - Święty Wojciech - Lipce
Krasickiego 03;stop_position;54.406119;18.6441495;Gdańsk;Brzeźno
Toruńska 02;stop_position;54.344654;18.6451804;Gdańsk;Śródmieście
Olszyńska 01;stop_position;54.3340413;18.6551309;Gdańsk;Olszynka
Sobieszewo;stop_position;54.3463122;18.8152429;Gdańsk;Wyspa Sobieszewska
Sobieszewska Pastwa 1 01;stop_position;54.3190671;18.865597;Gdańsk;Wyspa Sobieszewska
Chwaszczyno, Świerkowa;stop_position;54.4251381;18.4321215;Chwaszczyno;
Chwaszczyno, Bogusława;stop_position;54.4305677;18.4398987;Chwaszczyno;
Chwaszczyno Boczna 71;stop_position;54.4432368;18.4018831;Chwaszczyno;
Płowce 01;stop_position;54.3558749;18.6303218;Gdańsk;Siedlce
Szczęśliwa;stop_position;54.3490907;18.5280524;Gdańsk;Jasień
Ergo Arena 03;stop_position;54.425749;18.5810174;Gdańsk;Żabianka-Wejhera-Jelitkowo-Tysiąclecia
Karczemki;stop_position;54.3503103;18.5095129;Gdańsk;Kokoszki
Zwycięstwa - Wielkopolska 04;stop_position;54.484887;18.5444285;Gdynia;Orłowo
Mały Kack Sandomierska 03;stop_position;54.4864742;18.5282839;Gdynia;Mały Kack
Zeusa;stop_position;54.4222331;18.4628432;Gdańsk;Osowa
Dąbrowa Centrum 04;stop_position;54.4733331;18.465192;Gdynia;Dąbrowa
Powstańców Warszawskich;stop_position;54.3510974;18.6360924;Gdańsk;Siedlce
Wielki Kack Starodworcowa 02;stop_position;54.4646451;18.4965526;Gdynia;Wielki Kack
Czarny Dwór;stop_position;54.407587;18.6138216;Gdańsk;Przymorze Wielkie
Otomin Sarnia;stop_position;54.3246461;18.5172294;Otomin;
Opera Bałtycka;stop_position;54.3720707;18.6247091;Gdańsk;Wrzeszcz Górny
Dworzec Główny 18;stop_position;54.355004;18.6452635;Gdańsk;Śródmieście
Opacka;stop_position;54.4136648;18.5655728;Gdańsk;Oliwa
Opacka;stop_position;54.4139744;18.56577;Gdańsk;Oliwa
Lublewo Gdańskie, Konwaliowa;stop_position;54.2894499;18.513202;Lublewo Gdańskie;
Borkowo Topolowa 01;stop_position;54.298392;18.5991847;Borkowo;
Lipowa;stop_position;54.3399626;18.5766624;Gdańsk;Ujeścisko - Łostowice
Leszczynowa 01;stop_position;54.3310099;18.558571;Gdańsk;Jasień
Jaśkowa Dolina 01;stop_position;54.3784539;18.6063521;Gdańsk;Wrzeszcz Górny
Babidół;stop_position;54.2627007;18.4357579;Babidół;
Kolbudy, Os. Leśników;stop_position;54.2639063;18.464181;Kolbudy;
Pręgowo, Szkoła;stop_position;54.2569905;18.4779833;Pręgowo;
Pręgowo, Szkoła;stop_position;54.256823;18.4783276;Pręgowo;
Kolbudy;stop_position;54.2701203;18.4677324;Kolbudy;
Skarżyńskiego;stop_position;54.3863735;18.6025552;Gdańsk;Wrzeszcz Dolny
Chrzanowskiego 03;stop_position;54.3804999;18.5880519;Gdańsk;Wrzeszcz Górny
Muzeum II Wojny Światowej 02;stop_position;54.3575648;18.6589188;Gdańsk;Śródmieście
Aksamitna 01;stop_position;54.3584419;18.6520983;Gdańsk;Śródmieście
Muzeum II Wojny Światowej 01;stop_position;54.3574434;18.6593276;Gdańsk;Śródmieście
Rybaki Górne 01;stop_position;54.3581926;18.6558405;Gdańsk;Śródmieście
Dworzec Główny 01;stop_position;54.3551694;18.645539;Gdańsk;Śródmieście
Dworzec Główny 02;stop_position;54.3546991;18.6453622;Gdańsk;Śródmieście
Brak nazwy;stop_position;54.3554008;18.6457803;Gdańsk;Śródmieście
Dworzec Główny 08;stop_position;54.3562991;18.6455683;Gdańsk;Śródmieście
Dworzec Główny 06;stop_position;54.3569559;18.6457016;Gdańsk;Śródmieście
Hucisko;stop_position;54.3518491;18.6455786;Gdańsk;Śródmieście
Łostowice Świętokrzyska 01;stop_position;54.3224798;18.6057706;Gdańsk;Orunia Górna - Gdańsk Południe
Niedźwiednik 02;stop_position;54.3803355;18.5588989;Gdańsk;Brętowo
Zwinisławy 02;stop_position;54.4687486;18.4849603;Gdynia;Wielki Kack
Olgierda 01;stop_position;54.4781931;18.5239687;Gdynia;Mały Kack
Plac Górnośląski 02;stop_position;54.4833959;18.5384535;Gdynia;Orłowo
Leśna Polana 02 (NŻ);stop_position;54.4621757;18.4534805;Gdynia;Dąbrowa
Paprykowa 02;stop_position;54.4677612;18.4655032;Gdynia;Dąbrowa
Paprykowa 01;stop_position;54.4683597;18.4667765;Gdynia;Dąbrowa
Szafranowa 01;stop_position;54.4658705;18.4615025;Gdynia;Dąbrowa
Dąbrowa Centrum 01;stop_position;54.4739946;18.4661206;Gdynia;Dąbrowa
Kameliowa 02;stop_position;54.4701728;18.4682924;Gdynia;Dąbrowa
Anyżowa 02;stop_position;54.4745951;18.4686485;Gdynia;Dąbrowa
Brodwino - Szkoła;stop_position;54.4560355;18.5314848;Sopot;
Karwiny PKM 01;stop_position;54.4688799;18.5077673;Gdynia;Wielki Kack
Podleśna 01;stop_position;54.467934;18.5091577;Gdynia;Wielki Kack
Schronisko Sopotkowo;stop_position;54.4523072;18.5416834;Sopot;
Schronisko Sopotkowo;stop_position;54.4527925;18.5409968;Sopot;
Cmentarz;stop_position;54.4509157;18.5482016;Sopot;
Chodowieckiego;stop_position;54.4503318;18.5530571;Sopot;
Malczewskiego 02;stop_position;54.4495609;18.5554145;Sopot;
Sopot PKP - Niepodległości 02;stop_position;54.4386144;18.5606867;Sopot;
Karwiny PKM 02;stop_position;54.4690975;18.5077482;Gdynia;Karwiny
Sopot Reja 01;stop_position;54.4314337;18.5618509;Sopot;
Nałkowskiej 02;stop_position;54.4697854;18.4990763;Gdynia;Karwiny
Źródło Marii 02;stop_position;54.4705792;18.4947702;Gdynia;Karwiny
Gryfa Pomorskiego 01;stop_position;54.4677136;18.4873578;Gdynia;Wielki Kack
Lidzka 01;stop_position;54.4757079;18.5172158;Gdynia;Mały Kack
Cmentarz;stop_position;54.4509435;18.5494913;Sopot;
Myśliwska 02;stop_position;54.4711935;18.4885436;Gdynia;Karwiny
Spokojna - Cmentarz;stop_position;54.4710342;18.5220157;Gdynia;Mały Kack
Olgierda 02;stop_position;54.4783986;18.523761;Gdynia;Mały Kack
Racławicka 01;stop_position;54.473486;18.5147221;Gdynia;Mały Kack
Centrum Nauki Experyment 01;stop_position;54.4975407;18.5381471;Gdynia;Wzgórze Świętego Maksymiliana
Plac Górnośląski 01;stop_position;54.4834492;18.5386383;Gdynia;Orłowo
Redłowo SKM - Park Technologiczny 02;stop_position;54.4920872;18.5407656;Gdynia;Redłowo
Redłowo SKM - Park Technologiczny 01;stop_position;54.4927745;18.5404721;Gdynia;Redłowo
Zwycięstwa - Wielkopolska 01;stop_position;54.4864561;18.544895;Gdynia;Redłowo
Łowicka 01;stop_position;54.4808972;18.5309684;Gdynia;Mały Kack
Łowicka 02;stop_position;54.4811945;18.5311224;Gdynia;Mały Kack
Lidzka 02;stop_position;54.4756161;18.516213;Gdynia;Mały Kack
Racławicka 02;stop_position;54.4726084;18.513482;Gdynia;Mały Kack
Dąbrowa Miętowa;stop_position;54.4713989;18.4501804;Gdynia;Dąbrowa
Piołunowa;stop_position;54.4743365;18.4575205;Gdynia;Dąbrowa
Tymiankowa;stop_position;54.4724462;18.4529295;Gdynia;Dąbrowa
Dąbrowa Centrum 02;stop_position;54.4744917;18.46413;Gdynia;Dąbrowa
Górnicza - Damroki 02;stop_position;54.4681714;18.4811918;Gdynia;Wielki Kack
Kowale Szkoła Metropolitalna 01;stop_position;54.3065722;18.5694498;Kowale;
Bernadowska 01;stop_position;54.4630675;18.5540097;Gdynia;Orłowo
Bernadowska 02;stop_position;54.4632788;18.5538857;Gdynia;Orłowo
Kolibki 01;stop_position;54.4733408;18.5540514;Gdynia;Orłowo
Nawigatorów 01;stop_position;54.4830357;18.5489565;Gdynia;Orłowo
"Orłowo SKM - ""Klif"" 02";stop_position;54.4759985;18.5531599;Gdynia;Orłowo
"Orłowo SKM - ""Klif"" 01";stop_position;54.4766391;18.5532399;Gdynia;Orłowo
Orłowo SKM - Orłowska 02;stop_position;54.4788564;18.552717;Gdynia;Orłowo
Orłowo SKM - Orłowska 01;stop_position;54.4796122;18.5524688;Gdynia;Orłowo
Sopot Kamienny Potok SKM 01;stop_position;54.4593751;18.5545808;Sopot;
"Orłowo SKM - ""Klif"" 06";stop_position;54.4759339;18.552935;Gdynia;Orłowo
Uniwersytet Medyczny 02;stop_position;54.3665589;18.6340229;Gdańsk;Aniołki
Traugutta;stop_position;54.3691043;18.6297261;Gdańsk;Aniołki
Sopot Kamienny Potok SKM 02;stop_position;54.4584631;18.5547015;Sopot;
Oliwa ZOO 01;stop_position;54.4134954;18.5353094;Gdańsk;Oliwa
Cmentarz Oliwski;stop_position;54.4133995;18.5572481;Gdańsk;Oliwa
Gdynia Arena (NŻ);stop_position;54.4988098;18.5324867;Gdynia;Wzgórze Świętego Maksymiliana
Redłowo SKM;stop_position;54.4911063;18.5370196;Gdynia;Mały Kack
Redłowo SKM;stop_position;54.4912491;18.5371516;Gdynia;Mały Kack
Łużycka;stop_position;54.4942427;18.5348388;Gdynia;Mały Kack
Hallera;stop_position;54.4996714;18.5417606;Gdynia;Wzgórze Świętego Maksymiliana
Brzechwy;stop_position;54.4727808;18.4898447;Gdynia;Karwiny
Karwiny Tuwima;stop_position;54.4739368;18.4847528;Gdynia;Karwiny
Stadion Miejski 01;stop_position;54.4921478;18.5308138;Gdynia;Mały Kack
Redłowo SKM 04;stop_position;54.4917073;18.536747;Gdynia;Mały Kack
Uczniowska 01;stop_position;54.4986905;18.5033745;Gdynia;Witomino
Witomino Centrum 02;stop_position;54.4977894;18.5093586;Gdynia;Witomino
Witomino Centrum 03;stop_position;54.49779;18.5103895;Gdynia;Witomino
Witomino Centrum 04;stop_position;54.4985824;18.5077324;Gdynia;Witomino
Witomino Sosnowa 02;stop_position;54.4984635;18.4940666;Gdynia;Witomino
Okrężna I;stop_position;54.4999216;18.4706737;Gdynia;Chwarzno-Wiczlino
Amona 02;stop_position;54.4995842;18.4452911;Gdynia;Chwarzno-Wiczlino
Chwarzno Sokółka 04;stop_position;54.4972156;18.4377073;Gdynia;Chwarzno-Wiczlino
Chwarzno Sokółka 02;stop_position;54.4976013;18.438052;Gdynia;Chwarzno-Wiczlino
Sokoła 02;stop_position;54.4986454;18.4397887;Gdynia;Chwarzno-Wiczlino
Chwarzno Polanki 02;stop_position;54.4989322;18.4327277;Gdynia;Chwarzno-Wiczlino
Chwarzno Polanki 01;stop_position;54.4989211;18.4350814;Gdynia;Chwarzno-Wiczlino
Gradowa (NŻ);stop_position;54.4857748;18.4332085;Gdynia;Chwarzno-Wiczlino
Kamrowskiego;stop_position;54.4970646;18.4307895;Gdynia;Chwarzno-Wiczlino
Wiczlino - Działki II;stop_position;54.4811592;18.4419982;Gdynia;Chwarzno-Wiczlino
Wiczlino - Skrzyżowanie 03;stop_position;54.4906238;18.4247882;Gdynia;Chwarzno-Wiczlino
Wiczlińska - Las (NŻ);stop_position;54.4781703;18.4511958;Gdynia;Chwarzno-Wiczlino
Wiczlińska - Śliska;stop_position;54.4833077;18.4372247;Gdynia;Chwarzno-Wiczlino
Zaruskiego;stop_position;54.4945195;18.430079;Gdynia;Chwarzno-Wiczlino
Filipkowskiego 02;stop_position;54.4881047;18.4277136;Gdynia;Chwarzno-Wiczlino
Powstań Chłopskich;stop_position;54.4897313;18.548395;Gdynia;Redłowo
Redłowo Szpital 01;stop_position;54.4896744;18.5552028;Gdynia;Redłowo
Ruchu Oporu;stop_position;54.4923669;18.5422006;Gdynia;Redłowo
Ruchu Oporu;stop_position;54.493599;18.5414966;Gdynia;Redłowo
Agrarna 02;stop_position;54.376734;18.5075326;Gdańsk;Matarnia
Astronautów 01;stop_position;54.3771461;18.5030713;Gdańsk;Matarnia
Cylkowskiego 01;stop_position;54.4937737;18.5517988;Gdynia;Redłowo
Cylkowskiego 02;stop_position;54.4942977;18.5523717;Gdynia;Redłowo
Kopernika - Kościół 01;stop_position;54.4955849;18.5511056;Gdynia;Redłowo
Kopernika - Kościół 02;stop_position;54.4962578;18.5506996;Gdynia;Redłowo
Korczaka 01;stop_position;54.496389;18.5445986;Gdynia;Redłowo
Szczeblewskiego 02;stop_position;54.4988033;18.549177;Gdynia;Wzgórze Świętego Maksymiliana
Długa (NŻ);stop_position;54.4961766;18.5119935;Gdynia;Witomino
Witomino Polna;stop_position;54.4950587;18.5148125;Gdynia;Witomino
Stawna;stop_position;54.4949802;18.5087618;Gdynia;Witomino
Stawna;stop_position;54.495532;18.5083575;Gdynia;Witomino
Witomino Leśniczówka 04;stop_position;54.4911057;18.5126694;Gdynia;Witomino
Witomino Leśniczówka 01;stop_position;54.4916171;18.5111937;Gdynia;Witomino
Kmicica (NŻ);stop_position;54.4982635;18.4164085;Gdynia;Chwarzno-Wiczlino
Potok Wiczliński (NŻ);stop_position;54.4943292;18.4198185;Gdynia;Chwarzno-Wiczlino
Orłowo - Molo;stop_position;54.4807433;18.5639209;Gdynia;Orłowo
Mały Kack Sandomierska 01;stop_position;54.4866949;18.5283313;Gdynia;Mały Kack
Wojanowo;stop_position;54.2322559;18.6021068;Juszkowo;
Owczarnia 01;stop_position;54.4128849;18.481055;Gdańsk;Osowa
Sosnowiecka 01 (NŻ);stop_position;54.4848836;18.5350752;Gdynia;Orłowo
Karwiny Nowowiczlińska 02;stop_position;54.4742683;18.4767444;Gdynia;Karwiny
Banino, Zbiornik;stop_position;54.3806325;18.4152802;Banino;
Sportowa 01;stop_position;54.3353253;18.8134901;Wiślinka;
Naftowa 02;stop_position;54.3428817;18.7699276;Gdańsk;Rudniki
Bohaterów Monte Cassino 02;stop_position;54.2534263;18.6489822;Pruszcz Gdański;Komarowo
Szmaragdowa 01;stop_position;54.3147042;18.5996727;Gdańsk;Orunia Górna - Gdańsk Południe
Piekarnicza;stop_position;54.3511961;18.5925032;Gdańsk;Siedlce
Cedrowa 02;stop_position;54.339236;18.5863449;Gdańsk;Ujeścisko - Łostowice
Wiczlino - Skrzyżowanie 01;stop_position;54.4898314;18.4250075;Gdynia;Chwarzno-Wiczlino
Cmentarna 01;stop_position;54.3408148;18.6357447;Gdańsk;Chełm
Przymorze SKM 02;stop_position;54.4016207;18.5768258;Gdańsk;Przymorze Małe
Piekarnicza;stop_position;54.3513878;18.5923528;Gdańsk;Siedlce
Głęboka 90;stop_position;54.3529234;18.6724201;Gdańsk;Śródmieście
Targ Rybny;stop_position;54.353212;18.6585328;Gdańsk;Śródmieście
Wiosny Ludów;stop_position;54.3573009;18.6658382;Gdańsk;Śródmieście
Kaczeńce 03;stop_position;54.363305;18.6992759;Gdańsk;Stogi
Steczka 01;stop_position;54.3596804;18.74075;Gdańsk;Krakowiec - Górki Zachodnie
Sówki 02;stop_position;54.3614082;18.7305665;Gdańsk;Krakowiec - Górki Zachodnie
Sówki 01;stop_position;54.3614704;18.7296777;Gdańsk;Krakowiec - Górki Zachodnie
Grenadierów 02;stop_position;54.4762047;18.504117;Gdynia;Mały Kack
Węzeł Kliniczna;stop_position;54.3764206;18.6305806;Gdańsk;Młyniska
Mostostal;stop_position;54.3856681;18.644596;Gdańsk;Letnica
Węzeł Kliniczna;stop_position;54.3768462;18.6322457;Gdańsk;Młyniska
Wyspiańskiego;stop_position;54.3766829;18.6234785;Gdańsk;Wrzeszcz Dolny
Politechnika SKM 01;stop_position;54.3753838;18.6263032;Gdańsk;Wrzeszcz Dolny
Zaspa 02;stop_position;54.399176;18.5949648;Gdańsk;Zaspa-Rozstaje
Zaspa 01;stop_position;54.3995594;18.5946852;Gdańsk;Zaspa-Rozstaje
Zaspa 03;stop_position;54.3998815;18.5955688;Gdańsk;Zaspa-Rozstaje
Brama Oliwska;stop_position;54.3620888;18.6415918;Gdańsk;Aniołki
Chodowieckiego;stop_position;54.3640076;18.6383914;Gdańsk;Aniołki
Dworzec PKS;stop_position;54.3566079;18.6433638;Gdańsk;Śródmieście
Klonowa;stop_position;54.3799042;18.6030727;Gdańsk;Wrzeszcz Górny
Miszewskiego 01;stop_position;54.3758086;18.6152462;Gdańsk;Wrzeszcz Górny
Traugutta;stop_position;54.3691197;18.6297609;Gdańsk;Aniołki
Uniwersytet Medyczny 01;stop_position;54.3668291;18.6336307;Gdańsk;Aniołki
Wojska Polskiego 01;stop_position;54.387058;18.5902016;Gdańsk;Strzyża
Wilka-Krzyżanowskiego 01;stop_position;54.3884968;18.5815636;Gdańsk;Strzyża
Zamenhofa 01;stop_position;54.3869233;18.5849162;Gdańsk;Strzyża
Galeria Bałtycka 01;stop_position;54.3823506;18.5985134;Gdańsk;Wrzeszcz Górny
Strzyża PKM 02;stop_position;54.391116;18.5777215;Gdańsk;Strzyża
Bażyńskiego 02;stop_position;54.399385;18.5680839;Gdańsk;Oliwa
Derdowskiego 02;stop_position;54.405583;18.5636256;Gdańsk;Oliwa
Obrońców Westerplatte 02;stop_position;54.4082787;18.5629497;Gdańsk;Oliwa
Tetmajera 02;stop_position;54.4026988;18.5656167;Gdańsk;Oliwa
Uniwersytet Gdański 02;stop_position;54.3956161;18.5717761;Gdańsk;Oliwa
Akademia Muzyczna;stop_position;54.344673;18.6646598;Gdańsk;Śródmieście
Brama Wyżynna;stop_position;54.3508154;18.6462435;Gdańsk;Śródmieście
Brama Żuławska;stop_position;54.3478598;18.6694905;Gdańsk;Śródmieście
Chmielna 02;stop_position;54.3453447;18.6575951;Gdańsk;Śródmieście
Okopowa;stop_position;54.3475094;18.6468083;Gdańsk;Śródmieście
Żabi Kruk;stop_position;54.3464334;18.6519997;Gdańsk;Śródmieście
Plac Solidarności 01;stop_position;54.3606532;18.6476295;Gdańsk;Śródmieście
Stocznia SKM;stop_position;54.3642773;18.6431546;Gdańsk;Młyniska
Powstańców Warszawskich;stop_position;54.3511072;18.636588;Gdańsk;Siedlce
Górnicza 01;stop_position;54.4711371;18.4855318;Gdynia;Wielki Kack
Rewerenda 01;stop_position;54.4522365;18.4405672;Gdynia;Wielki Kack
Chwaszczyno - Nytbusz 02 (NŻ);stop_position;54.4523371;18.427518;Chwaszczyno;
Twarda;stop_position;54.3743056;18.6311278;Gdańsk;Młyniska
Twierdza Wisłoujście 03;stop_position;54.3932006;18.6778126;Gdańsk;Przeróbka
Subisława;stop_position;54.4168612;18.5737683;Gdańsk;Żabianka-Wejhera-Jelitkowo-Tysiąclecia
Pomorska 01;stop_position;54.4196105;18.5841194;Gdańsk;Żabianka-Wejhera-Jelitkowo-Tysiąclecia
Chełm - Więckowskiego 01;stop_position;54.3339443;18.6159189;Gdańsk;Chełm
Wiślinka Piaskowa;stop_position;54.3397616;18.823493;Wiślinka;
Jana Pawła II;stop_position;54.3946536;18.6015605;Gdańsk;Zaspa-Rozstaje
Stadion Miejski 04;stop_position;54.4939532;18.5301459;Gdynia;Mały Kack
Uniwersytet Gdański;stop_position;54.4458552;18.554545;Sopot;
Brodwino 02;stop_position;54.4576387;18.5345008;Sopot;Brodwino
Łapino, Sapiehy;stop_position;54.2815092;18.447189;Łapino;
Łapino, Sapiehy;stop_position;54.2816651;18.4466111;Łapino;
Łapino;stop_position;54.2885232;18.4440363;Łapino;
Skarżyńskiego;stop_position;54.3868394;18.6010896;Gdańsk;Zaspa-Młyniec
Olkuska - Łowicka 01;stop_position;54.4880031;18.5233737;Gdynia;Mały Kack
Cedry Małe, Długa;stop_position;54.2860324;18.8419186;Cedry Małe;
Rdestowa - Leśny Zakątek 02;stop_position;54.4638839;18.457288;Gdynia;Dąbrowa
Chwaszczyno Synaka 01;stop_position;54.4474469;18.4277546;Chwaszczyno;
Chwaszczyno - Lisia (NŻ);stop_position;54.4351167;18.4029489;Chwaszczyno;
Chwaszczyno Wiejska 01;stop_position;54.4460306;18.42319;Chwaszczyno;
Chwaszczyno Centrum 01;stop_position;54.4425472;18.4175872;Chwaszczyno;
Chwaszczyno Centrum 02;stop_position;54.4440819;18.4197231;Chwaszczyno;
Firoga 02;stop_position;54.380938;18.4822495;Gdańsk;Matarnia
Lublewo Gdańskie, Polna;stop_position;54.2824184;18.4906462;Lublewo Gdańskie;
Lublewo Gdańskie;stop_position;54.2840361;18.5030584;Lublewo Gdańskie;
Cebertowicza;stop_position;54.3384478;18.6050396;Gdańsk;Chełm
Cebertowicza;stop_position;54.3383981;18.6055272;Gdańsk;Chełm
Wilanowska;stop_position;54.3364233;18.598928;Gdańsk;Chełm
Plac Komorowskiego 03;stop_position;54.3825697;18.6151356;Gdańsk;Wrzeszcz Dolny
Przemyska 02;stop_position;54.3331194;18.5963734;Gdańsk;Chełm
Płocka;stop_position;54.3288408;18.5988874;Gdańsk;Chełm
Sikorskiego;stop_position;54.3385081;18.6184836;Gdańsk;Chełm
Płocka;stop_position;54.3290854;18.5986856;Gdańsk;Chełm
Przemyska 01;stop_position;54.3334596;18.5964099;Gdańsk;Chełm
Szadółki 02;stop_position;54.3283037;18.5517711;Gdańsk;Jasień
Kamienny Potok SKM 06;stop_position;54.4575241;18.5530539;Sopot;
Olszyńska 02;stop_position;54.3337688;18.65719;Gdańsk;Olszynka
Otomin Słoneczna Pętla 01;stop_position;54.3213618;18.5048681;Otomin;
Bąkowo;stop_position;54.2929182;18.5307587;Bąkowo;
Śródmieście SKM 02;stop_position;54.3477964;18.6435747;Gdańsk;Śródmieście
Pohulanka;stop_position;54.3486598;18.637038;Gdańsk;Chełm
Pohulanka;stop_position;54.3486568;18.6365137;Gdańsk;Chełm
Witomino Centrum 01;stop_position;54.498922;18.5107309;Gdynia;Witomino
Oliwa 03;stop_position;54.4096362;18.5671505;Gdańsk;Oliwa
Politechnika;stop_position;54.3740237;18.6214827;Gdańsk;Wrzeszcz Górny
Gdańsk Przymorze - Uniwersytet;stop_position;54.4005916;18.5768541;Gdańsk;Przymorze Małe
Gdańsk Główny;stop_position;54.3562474;18.6438947;Gdańsk;Śródmieście
Gdańsk Oliwa;stop_position;54.4096085;18.5719021;Gdańsk;Oliwa
Gdansk Wrzeszcz;stop_position;54.3817783;18.6051895;Gdańsk;Wrzeszcz Górny
Gdańsk Oliwa;stop_position;54.409587;18.5716976;Gdańsk;Oliwa
Sopot;stop_position;54.4399949;18.5620833;Sopot;
Gdynia Karwiny;stop_position;54.4698849;18.5088041;Gdynia;Mały Kack
Gdańsk Firoga;stop_position;54.3783037;18.487096;Gdańsk;Matarnia
Staniszewskiego;stop_position;54.4933328;18.4363856;Gdynia;Chwarzno-Wiczlino
Barniewice, Topolowa;stop_position;54.4050627;18.4363135;Barniewice;
Górnicza - Kościół 02;stop_position;54.4669767;18.4819481;Gdynia;Wielki Kack
Astronautów 02;stop_position;54.3771633;18.5040537;Gdańsk;Matarnia
Szybowcowa 01;stop_position;54.3789078;18.4883848;Gdańsk;Matarnia
Szybowcowa 02;stop_position;54.3789551;18.4888756;Gdańsk;Matarnia
Brak nazwy;stop_position;54.3714652;18.6526111;Gdańsk;Młyniska
Przystanek końcowy;stop_position;54.3554926;18.6426945;Gdańsk;Śródmieście
Muzeum Narodowe 02;stop_position;54.3445317;18.6487743;Gdańsk;Śródmieście
Sienna Grobla II;stop_position;54.3544443;18.665897;Gdańsk;Śródmieście
Wiślinka Most;stop_position;54.3416149;18.8246165;Wiślinka;
Potęgowska 01;stop_position;54.3313971;18.5464426;Gdańsk;Jasień
Potęgowska 02;stop_position;54.331455;18.5463957;Gdańsk;Jasień
Węzeł Groddecka;stop_position;54.3490488;18.642126;Gdańsk;Śródmieście
Opera Bałtycka;stop_position;54.3720908;18.6247423;Gdańsk;Wrzeszcz Górny
Opera Bałtycka;stop_position;54.3721306;18.6248077;Gdańsk;Wrzeszcz Górny
Reja;stop_position;54.3788572;18.6225214;Gdańsk;Wrzeszcz Dolny
Nad Jarem 02;stop_position;54.3549264;18.6154104;Gdańsk;Suchanino
Gdynia Arena (NŻ);stop_position;54.4977442;18.5323991;Gdynia;Wzgórze Świętego Maksymiliana
Myśliwska 01;stop_position;54.4709998;18.4906066;Gdynia;Wielki Kack
Oczyszczalnia 03;stop_position;54.3418874;18.757925;Gdańsk;Rudniki
Cedry Małe, Długa;stop_position;54.2856671;18.8431812;Cedry Małe;
Sopocka 01;stop_position;54.4300675;18.4785989;Gdańsk;Osowa
Polsat Plus Arena Gdańsk;stop_position;54.3870696;18.6481332;Gdańsk;Letnica
Żaglowa - AmberExpo;stop_position;54.3824001;18.6384637;Gdańsk;Letnica
Oliwa 08;stop_position;54.410163;18.5656469;Gdańsk;Oliwa
Wojska Polskiego 04;stop_position;54.3864925;18.5920176;Gdańsk;Strzyża
Wojska Polskiego 03;stop_position;54.3877251;18.5905831;Gdańsk;Strzyża
Instytut Med. Morskiej i Tropikalnej 02;stop_position;54.4873833;18.5471502;Gdynia;Redłowo
Zaroślak 04;stop_position;54.3418041;18.6416414;Gdańsk;Śródmieście
Kępna 02;stop_position;54.3589639;18.7471723;Gdańsk;Krakowiec - Górki Zachodnie
Łostowice Świętokrzyska 02;stop_position;54.3231442;18.6066429;Gdańsk;Orunia Górna - Gdańsk Południe
Świętokrzyska 02;stop_position;54.3243831;18.6036785;Gdańsk;Chełm
Świętokrzyska 01;stop_position;54.3243794;18.6056793;Gdańsk;Chełm
Górecka 01;stop_position;54.355377;18.7454582;Gdańsk;Krakowiec - Górki Zachodnie
Stogi - Górki Zachodnie;stop_position;54.3538944;18.7838643;Gdańsk;Krakowiec - Górki Zachodnie
Narodowe Centrum Żeglarstwa;stop_position;54.3674723;18.7807995;Gdańsk;Krakowiec - Górki Zachodnie
Krasickiego 02;stop_position;54.4061728;18.6442654;Gdańsk;Brzeźno
Sołdka;stop_position;54.4261871;18.4725875;Gdańsk;Osowa
Bora Komorowskiego 07;stop_position;54.4087757;18.5867141;Gdańsk;Przymorze Małe
Halicka 01;stop_position;54.4911852;18.5334931;Gdynia;Mały Kack
Siedlce 06;stop_position;54.3484713;18.6066859;Gdańsk;Siedlce
Dworzec Główny;stop_position;54.3545473;18.6455638;Gdańsk;Śródmieście
Siedlicka 01;stop_position;54.3700348;18.6122923;Gdańsk;Wrzeszcz Górny
Legionów;stop_position;54.3871217;18.6107054;Gdańsk;Wrzeszcz Dolny
Niedźwiednik PKM 01;stop_position;54.3775585;18.5745135;Gdańsk;Wrzeszcz Górny
Nowy Port Zajezdnia 01;stop_position;54.3979692;18.6732324;Gdańsk;Nowy Port
Lipowa 02;stop_position;54.470147;18.4906179;Gdynia;Wielki Kack
Zielona Brama;stop_position;54.3475858;18.6558204;Gdańsk;Śródmieście
Żabi Kruk;stop_position;54.3421167;18.648945;Gdańsk;Śródmieście
Pomorska 04;stop_position;54.4191317;18.5845144;Gdańsk;Żabianka-Wejhera-Jelitkowo-Tysiąclecia
Wilanowska;stop_position;54.3368199;18.5993927;Gdańsk;Chełm
Lipuska;stop_position;54.3385914;18.510837;Gdańsk;Kokoszki
Brak nazwy;stop_position;54.3714068;18.6532436;Gdańsk;Młyniska
Gdansk Wrzeszcz;stop_position;54.3818078;18.6052335;Gdańsk;Wrzeszcz Górny
Odrzańska;stop_position;54.3454028;18.626213;Gdańsk;Chełm
Dworska;stop_position;54.4040631;18.6240762;Gdańsk;Brzeźno
Gdańsk Śródmieście;stop_position;54.3468571;18.6442195;Gdańsk;Śródmieście
Tarasy (Bema);stop_position;54.3506184;18.6320955;Gdańsk;Siedlce
Makro 02;stop_position;54.337323;18.7389769;Przejazdowo;
Jabłoniowa Osiedle;stop_position;54.33164;18.563435;Gdańsk;Jasień
Cieszyńskiego 02;stop_position;54.3382289;18.6100062;Gdańsk;Chełm
Cieszyńskiego 01;stop_position;54.3381789;18.6104796;Gdańsk;Chełm
Płocka;stop_position;54.3289489;18.5999785;Gdańsk;Chełm
Malczewskiego 01;stop_position;54.4497163;18.5554953;Sopot;
Bysewo 02;stop_position;54.3739767;18.4625563;Gdańsk;Kokoszki
Chełm Witosa 02;stop_position;54.3371357;18.617076;Gdańsk;Chełm
Chełm Witosa;stop_position;54.3371799;18.6171456;Gdańsk;Chełm
Chełm Witosa 01;stop_position;54.3377235;18.6177449;Gdańsk;Chełm
Sikorskiego;stop_position;54.3387908;18.6184763;Gdańsk;Chełm
Kiełpino - Szkoła;stop_position;54.3397855;18.5080631;Gdańsk;Kokoszki
Gostyńska Szpital 02;stop_position;54.3473988;18.5107379;Gdańsk;Kokoszki
Knyszyńska 01;stop_position;54.3139732;18.6032593;Gdańsk;Orunia Górna - Gdańsk Południe
Władysława Jagiełły 02;stop_position;54.4726248;18.5083224;Gdynia;Mały Kack
Grenadierów 01;stop_position;54.4753483;18.5047929;Gdynia;Mały Kack
Mostostal;stop_position;54.3857622;18.6449256;Gdańsk;Letnica
Gdańsk Jasień;stop_position;54.3536199;18.5500425;Gdańsk;Jasień
Gdańsk Jasień;stop_position;54.3536528;18.5500148;Gdańsk;Jasień
Zakopiańska;stop_position;54.3488021;18.6191154;Gdańsk;Siedlce
Zakopiańska;stop_position;54.3488033;18.6185293;Gdańsk;Siedlce
Firoga 01;stop_position;54.3798251;18.4833202;Gdańsk;Matarnia
Jelitkowo;stop_position;54.4232777;18.5926384;Gdańsk;Żabianka-Wejhera-Jelitkowo-Tysiąclecia
Jelitkowo;stop_position;54.4233225;18.592591;Gdańsk;Żabianka-Wejhera-Jelitkowo-Tysiąclecia
Pomorska 02;stop_position;54.4193335;18.5843975;Gdańsk;Żabianka-Wejhera-Jelitkowo-Tysiąclecia
Kołobrzeska;stop_position;54.4034311;18.5915217;Gdańsk;Przymorze Wielkie
Kołobrzeska;stop_position;54.4043555;18.5910057;Gdańsk;Przymorze Wielkie
Bora Komorowskiego 01;stop_position;54.4080058;18.5891984;Gdańsk;Przymorze Wielkie
Bora Komorowskiego 02;stop_position;54.4090171;18.5887427;Gdańsk;Przymorze Wielkie
Czerwony Dwór;stop_position;54.4118694;18.5879686;Gdańsk;Przymorze Małe
Czerwony Dwór;stop_position;54.4126311;18.5877804;Gdańsk;Przymorze Małe
Piastowska 01;stop_position;54.4155636;18.5870426;Gdańsk;Przymorze Małe
Piastowska;stop_position;54.416436;18.586711;Gdańsk;Przymorze Małe
Osiedle Wejhera 02;stop_position;54.4203521;18.584215;Gdańsk;Żabianka-Wejhera-Jelitkowo-Tysiąclecia
Osiedle Wejhera 01;stop_position;54.4204803;18.5847306;Gdańsk;Żabianka-Wejhera-Jelitkowo-Tysiąclecia
Bajana 01;stop_position;54.3900011;18.6082186;Gdańsk;Zaspa-Rozstaje
Legionów;stop_position;54.3868041;18.6109184;Gdańsk;Wrzeszcz Dolny
Mickiewicza 01;stop_position;54.3833588;18.6205848;Gdańsk;Wrzeszcz Dolny
Mickiewicza 03;stop_position;54.383994;18.621959;Gdańsk;Wrzeszcz Dolny
Plac Komorowskiego 02;stop_position;54.3834465;18.6146333;Gdańsk;Wrzeszcz Dolny
Stocznia Północna 02;stop_position;54.3716992;18.6340313;Gdańsk;Młyniska
Stocznia Północna 01;stop_position;54.3719649;18.6337917;Gdańsk;Młyniska
Twarda;stop_position;54.3746702;18.6313369;Gdańsk;Młyniska
Węzeł Kliniczna;stop_position;54.3766609;18.6307706;Gdańsk;Młyniska
Żwirki i Wigury 02;stop_position;54.391829;18.6061569;Gdańsk;Zaspa-Rozstaje
Migowo;stop_position;54.3524378;18.5757533;Gdańsk;Piecki-Migowo
Migowo;stop_position;54.3526486;18.575985;Gdańsk;Piecki-Migowo
Jaśkowa Dolina 02;stop_position;54.3782675;18.6066806;Gdańsk;Wrzeszcz Górny
Helska;stop_position;54.4215516;18.5880994;Gdańsk;Żabianka-Wejhera-Jelitkowo-Tysiąclecia
Helska;stop_position;54.421637;18.5884915;Gdańsk;Żabianka-Wejhera-Jelitkowo-Tysiąclecia
Startowa;stop_position;54.3967486;18.5979764;Gdańsk;Zaspa-Rozstaje
Startowa;stop_position;54.3970135;18.5976117;Gdańsk;Zaspa-Rozstaje
Gdańsk Brętowo;stop_position;54.365241;18.5736534;Gdańsk;Brętowo
Galaktyczna 01;stop_position;54.4281212;18.4862893;Gdańsk;Osowa
Cedrowa 01;stop_position;54.3394293;18.5855478;Gdańsk;Ujeścisko - Łostowice
Chałubińskiego;stop_position;54.3415664;18.617725;Gdańsk;Chełm
Chałubińskiego;stop_position;54.3419017;18.6176897;Gdańsk;Chełm
Odrzańska;stop_position;54.3454197;18.6257237;Gdańsk;Chełm
Ciasna;stop_position;54.3491037;18.6241873;Gdańsk;Siedlce
Ciasna;stop_position;54.3491569;18.6247222;Gdańsk;Siedlce
Paska;stop_position;54.350089;18.6303264;Gdańsk;Siedlce
Paska;stop_position;54.3500044;18.629813;Gdańsk;Siedlce
Gospody 02;stop_position;54.4197913;18.582435;Gdańsk;Żabianka-Wejhera-Jelitkowo-Tysiąclecia
Pomorska - Osiedle;stop_position;54.4180669;18.5774326;Gdańsk;Żabianka-Wejhera-Jelitkowo-Tysiąclecia
Pomorska - Osiedle;stop_position;54.4182952;18.5779893;Gdańsk;Żabianka-Wejhera-Jelitkowo-Tysiąclecia
Nowe Ogrody 02;stop_position;54.3521687;18.6422003;Gdańsk;Śródmieście
Kielecka 02;stop_position;54.3336723;18.5909525;Gdańsk;Ujeścisko - Łostowice
Niegowska 01;stop_position;54.301479;18.6312775;Gdańsk;Orunia - Święty Wojciech - Lipce
Niegowska 02;stop_position;54.3028226;18.6309362;Gdańsk;Orunia - Święty Wojciech - Lipce
Nowiny 02;stop_position;54.3175722;18.6295852;Gdańsk;Orunia - Święty Wojciech - Lipce
Nowiny 01;stop_position;54.3192623;18.6301848;Gdańsk;Orunia - Święty Wojciech - Lipce
Ogrodowa 02;stop_position;54.3694878;18.5710793;Gdańsk;Brętowo
Ogrodowa 01;stop_position;54.3713279;18.5701656;Gdańsk;Brętowo
Potokowa 04;stop_position;54.3736146;18.5682333;Gdańsk;Brętowo
Przytulna;stop_position;54.3483269;18.5333224;Gdańsk;Jasień
Płocka;stop_position;54.328898;18.5998458;Gdańsk;Chełm
Płocka;stop_position;54.328924;18.5985572;Gdańsk;Chełm
Płocka;stop_position;54.3292693;18.5979379;Gdańsk;Chełm
Rejtana 02;stop_position;54.3280815;18.6336794;Gdańsk;Orunia - Święty Wojciech - Lipce
Rejtana 01;stop_position;54.328425;18.6339791;Gdańsk;Orunia - Święty Wojciech - Lipce
Rogalińska 01;stop_position;54.330888;18.6005477;Gdańsk;Chełm
Rogalińska 02;stop_position;54.3312181;18.6005246;Gdańsk;Chełm
Szczęśliwa;stop_position;54.3490804;18.5282833;Gdańsk;Jasień
Urząd Dozoru Technicznego 01;stop_position;54.3158118;18.6292412;Gdańsk;Orunia - Święty Wojciech - Lipce
Węzeł Karczemki;stop_position;54.3472499;18.5284678;Gdańsk;Jasień
Węzeł Karczemki;stop_position;54.3473886;18.5279826;Gdańsk;Jasień
Brętowo PKM 04;stop_position;54.3647594;18.5725598;Gdańsk;Brętowo
Życzliwa;stop_position;54.3452068;18.5363349;Gdańsk;Jasień
Życzliwa;stop_position;54.3458142;18.5333372;Gdańsk;Jasień
Fabryczna;stop_position;54.3534954;18.4937885;Gdańsk;Kokoszki
Gostyńska Szpital 01;stop_position;54.3479488;18.5107561;Gdańsk;Kokoszki
Inżynierska;stop_position;54.3516351;18.5022093;Gdańsk;Kokoszki
Inżynierska;stop_position;54.3521918;18.5005792;Gdańsk;Kokoszki
Karczemki;stop_position;54.3493509;18.5105192;Gdańsk;Kokoszki
Karczemki;stop_position;54.3497268;18.5124773;Gdańsk;Kokoszki
Kiełpino - Szkoła;stop_position;54.3395805;18.50794;Gdańsk;Kokoszki
Kiełpino Górne 01;stop_position;54.3420436;18.498867;Gdańsk;Kokoszki
Kiełpino Górne 02;stop_position;54.3420959;18.4992122;Gdańsk;Kokoszki
Otomińska;stop_position;54.3435096;18.5100683;Gdańsk;Kokoszki
Otomińska;stop_position;54.3441322;18.5105542;Gdańsk;Kokoszki
Łapińska;stop_position;54.3394965;18.5022992;Gdańsk;Kokoszki
Łapińska;stop_position;54.3397058;18.5009666;Gdańsk;Kokoszki
Agrarna 03;stop_position;54.3760036;18.5081005;Gdańsk;Matarnia
Agrarna 01;stop_position;54.376354;18.5097564;Gdańsk;Matarnia
Dworkowa;stop_position;54.3444308;18.681297;Gdańsk;Olszynka
Węzeł Elbląska 01;stop_position;54.3489508;18.6907101;Gdańsk;Rudniki
Maki 01;stop_position;54.3450597;18.6747463;Gdańsk;Olszynka
Mjr Słabego;stop_position;54.3723991;18.5221867;Gdańsk;Matarnia
Mostek 02;stop_position;54.3490396;18.6736723;Gdańsk;Śródmieście
Sierpowa;stop_position;54.3378655;18.6741118;Gdańsk;Olszynka
Sąsiedzka 01;stop_position;54.3709284;18.5043371;Gdańsk;Matarnia
Sąsiedzka 02;stop_position;54.3703899;18.5039222;Gdańsk;Matarnia
Złota Karczma 02;stop_position;54.374761;18.5219358;Gdańsk;Matarnia
Złota Karczma 01;stop_position;54.3749887;18.5218577;Gdańsk;Matarnia
Zawodzie;stop_position;54.339355;18.6866939;Gdańsk;Olszynka
Harfowa 02;stop_position;54.376475;18.5249551;Gdańsk;Matarnia
Matarnia PKM 01;stop_position;54.3744505;18.5071525;Gdańsk;Matarnia
Budapesztańska;stop_position;54.3558282;18.5787184;Gdańsk;Piecki-Migowo
Budapesztańska;stop_position;54.3557061;18.5782682;Gdańsk;Piecki-Migowo
Bysewo 03;stop_position;54.3750586;18.4640508;Gdańsk;Kokoszki
Bysewo 04;stop_position;54.3753678;18.4627493;Gdańsk;Kokoszki
Bysewo 01;stop_position;54.3737157;18.4623858;Gdańsk;Kokoszki
"Schronisko dla zwierząt ""Promyk"" 01";stop_position;54.3691656;18.4622964;Gdańsk;Kokoszki
"Schronisko dla zwierząt ""Promyk"" 02";stop_position;54.3694566;18.4617176;Gdańsk;Kokoszki
Centrostal 02;stop_position;54.3654887;18.4695849;Gdańsk;Kokoszki
Centrostal 01;stop_position;54.366396;18.4677793;Gdańsk;Kokoszki
Heweliusza;stop_position;54.3562929;18.6522402;Gdańsk;Śródmieście
Instal 02;stop_position;54.3670254;18.4665524;Gdańsk;Kokoszki
Kokoszki - Poczta 02;stop_position;54.3638605;18.4795695;Gdańsk;Kokoszki
Kokoszki - Poczta 01;stop_position;54.3639311;18.4811109;Gdańsk;Kokoszki
Kosmonautów;stop_position;54.3723272;18.4747576;Gdańsk;Kokoszki
Kosmonautów;stop_position;54.3727657;18.4732265;Gdańsk;Kokoszki
Migowo;stop_position;54.352766;18.5758606;Gdańsk;Piecki-Migowo
Migowo;stop_position;54.3529084;18.5763541;Gdańsk;Piecki-Migowo
Nowatorów 02;stop_position;54.3649792;18.4903756;Gdańsk;Kokoszki
Nowatorów 01;stop_position;54.3653673;18.493557;Gdańsk;Kokoszki
Nowatorów 04;stop_position;54.3657174;18.4902451;Gdańsk;Kokoszki
Brak nazwy;stop_position;54.3772403;18.4549669;Gdańsk;Kokoszki
Brak nazwy;stop_position;54.3776452;18.4532691;Gdańsk;Kokoszki
Brak nazwy;stop_position;54.3785835;18.4493466;Gdańsk;Kokoszki
Brak nazwy;stop_position;54.3788313;18.4483072;Gdańsk;Kokoszki
Brak nazwy;stop_position;54.3739557;18.4686635;Gdańsk;Kokoszki
Brak nazwy;stop_position;54.3741374;18.4679055;Gdańsk;Kokoszki
Rakietowa;stop_position;54.369312;18.482905;Gdańsk;Kokoszki
Rakietowa;stop_position;54.3700338;18.4811567;Gdańsk;Kokoszki
Staw Wróbla 01;stop_position;54.3505546;18.5565118;Gdańsk;Piecki-Migowo
Targ Rybny;stop_position;54.3535927;18.657827;Gdańsk;Śródmieście
Unimor 01;stop_position;54.3640377;18.4725311;Gdańsk;Kokoszki
Unimor 02;stop_position;54.3641976;18.4722018;Gdańsk;Kokoszki
Zacna;stop_position;54.3506911;18.5632031;Gdańsk;Piecki-Migowo
Zbieżna;stop_position;54.3669106;18.4878846;Gdańsk;Kokoszki
Żuraw;stop_position;54.3509093;18.6570839;Gdańsk;Śródmieście
Brama Nizinna;stop_position;54.3405618;18.6479573;Gdańsk;Śródmieście
Brama Nizinna;stop_position;54.340955;18.6483756;Gdańsk;Śródmieście
Głucha 02;stop_position;54.3274002;18.6410484;Gdańsk;Orunia - Święty Wojciech - Lipce
Głucha 01;stop_position;54.3278458;18.6411717;Gdańsk;Orunia - Święty Wojciech - Lipce
Kolonia Mysia;stop_position;54.3318066;18.6427345;Gdańsk;Orunia - Święty Wojciech - Lipce
Kolonia Mysia;stop_position;54.3319535;18.6428015;Gdańsk;Orunia - Święty Wojciech - Lipce
Przybrzeżna;stop_position;54.3348907;18.6480015;Gdańsk;Orunia - Święty Wojciech - Lipce
Ptasia;stop_position;54.330234;18.6265836;Gdańsk;Orunia - Święty Wojciech - Lipce
Ptasia 02;stop_position;54.3302644;18.6280585;Gdańsk;Orunia - Święty Wojciech - Lipce
Równa;stop_position;54.3242457;18.6408858;Gdańsk;Orunia - Święty Wojciech - Lipce
Sandomierska 02;stop_position;54.3323772;18.6344872;Gdańsk;Orunia - Święty Wojciech - Lipce
Sandomierska 01;stop_position;54.3324344;18.6347209;Gdańsk;Orunia - Święty Wojciech - Lipce
Stare Szkoty 02;stop_position;54.3355882;18.6362137;Gdańsk;Orunia - Święty Wojciech - Lipce
De Plelo;stop_position;54.3896004;18.6757045;Gdańsk;Przeróbka
De Plelo;stop_position;54.3896764;18.6758499;Gdańsk;Przeróbka
Potokowa 02;stop_position;54.3736775;18.5666112;Gdańsk;Brętowo
Potokowa 03;stop_position;54.374433;18.5667086;Gdańsk;Brętowo
Potokowa 01;stop_position;54.3746876;18.5686698;Gdańsk;Brętowo
Przystań Żeglugi 02;stop_position;54.4029911;18.6825866;Gdańsk;Przeróbka
Przystań Żeglugi 01;stop_position;54.4040181;18.6815802;Gdańsk;Przeróbka
Westerplatte 01;stop_position;54.4060927;18.6771164;Gdańsk;Przeróbka
Hevelianum 02;stop_position;54.3525416;18.6354694;Gdańsk;Siedlce
Hevelianum 01;stop_position;54.3527799;18.6349977;Gdańsk;Siedlce
Przywidzka 03;stop_position;54.3246178;18.5492147;Gdańsk;Jasień
Przywidzka 01;stop_position;54.3252819;18.5492526;Gdańsk;Jasień
Szadółki Obwodnica;stop_position;54.3229908;18.5427833;Gdańsk;Jasień
Szadółki Obwodnica;stop_position;54.3231489;18.5427888;Gdańsk;Jasień
Urząd Miejski 02;stop_position;54.3514521;18.6394443;Gdańsk;Śródmieście
Zakład Utylizacyjny 01;stop_position;54.3229992;18.5406808;Gdańsk;Jasień
Port Lotniczy 09;stop_position;54.3829072;18.4673747;Gdańsk;Matarnia
Barniewicka 02;stop_position;54.4341776;18.4661445;Gdańsk;Osowa
Biwakowa;stop_position;54.4270192;18.4599652;Gdańsk;Osowa
Biwakowa;stop_position;54.42817;18.4609046;Gdańsk;Osowa
Klukowo 01;stop_position;54.3889718;18.4821858;Gdańsk;Matarnia
Klukowo 04;stop_position;54.3893318;18.4825905;Gdańsk;Matarnia
Klukowo 03;stop_position;54.3893937;18.482739;Gdańsk;Matarnia
Jednorożca;stop_position;54.4235971;18.4787235;Gdańsk;Osowa
Jednorożca;stop_position;54.424271;18.4787557;Gdańsk;Osowa
Marsa;stop_position;54.4201058;18.4785434;Gdańsk;Osowa
Marsa;stop_position;54.420901;18.4785667;Gdańsk;Osowa
Niedziałkowskiego 02;stop_position;54.4302696;18.4620974;Gdańsk;Osowa
Niedziałkowskiego 01;stop_position;54.4313114;18.4631679;Gdańsk;Osowa
Nowa 02;stop_position;54.432479;18.4710841;Gdańsk;Osowa
Odyseusza;stop_position;54.4314841;18.4838785;Gdańsk;Osowa
Osiedle Barniewice;stop_position;54.4122066;18.4514238;Gdańsk;Osowa
Osowa Obwodnica;stop_position;54.4288028;18.4960837;Gdańsk;Osowa
Osowa Obwodnica;stop_position;54.42881;18.4956995;Gdańsk;Osowa
Owczarnia 02;stop_position;54.4141427;18.4804206;Gdańsk;Osowa
Przyrodników;stop_position;54.3842104;18.4326504;Gdańsk;Kokoszki
Wojnarskiego 01;stop_position;54.3845569;18.4860381;Gdańsk;Matarnia
Radiowa 01;stop_position;54.3898673;18.4761556;Gdańsk;Matarnia
Radiowa 02;stop_position;54.3899809;18.4755247;Gdańsk;Matarnia
Saturna 02;stop_position;54.4146032;18.4466546;Gdańsk;Osowa
Saturna 01;stop_position;54.4149454;18.4468798;Gdańsk;Osowa
Spadochroniarzy 02;stop_position;54.3856569;18.4706671;Gdańsk;Matarnia
Spadochroniarzy 01;stop_position;54.3870909;18.4718183;Gdańsk;Matarnia
Transportowców 02;stop_position;54.3581127;18.4911002;Gdańsk;Kokoszki
Transportowców 01;stop_position;54.3594087;18.4915425;Gdańsk;Kokoszki
Harfowa 01;stop_position;54.3761379;18.523183;Gdańsk;Matarnia
Chrzanowskiego 02;stop_position;54.3800605;18.5869171;Gdańsk;Wrzeszcz Górny
Damroki;stop_position;54.3387314;18.5643127;Gdańsk;Jasień
Dolne Młyny 02;stop_position;54.3666067;18.567729;Gdańsk;Brętowo
Emaus;stop_position;54.3467026;18.6030599;Gdańsk;Siedlce
Emaus;stop_position;54.347146;18.6021418;Gdańsk;Siedlce
Emaus;stop_position;54.3475211;18.6042548;Gdańsk;Siedlce
Emaus;stop_position;54.3481958;18.6027629;Gdańsk;Siedlce
Galeria Bałtycka 04;stop_position;54.3815099;18.5993131;Gdańsk;Wrzeszcz Górny
Galeria Bałtycka 06;stop_position;54.3821199;18.5969757;Gdańsk;Wrzeszcz Górny
Galeria Bałtycka 05;stop_position;54.3830242;18.5989008;Gdańsk;Wrzeszcz Górny
Galeria Bałtycka 03;stop_position;54.3833181;18.5972506;Gdańsk;Wrzeszcz Górny
Jasień - Pólnicy;stop_position;54.341065;18.5611293;Gdańsk;Jasień
Karskiego 01;stop_position;54.3636287;18.5565175;Gdańsk;Brętowo
Karskiego 02;stop_position;54.3636495;18.5562728;Gdańsk;Brętowo
Krzemowa 01;stop_position;54.3246609;18.6180275;Gdańsk;Orunia Górna - Gdańsk Południe
Orunia Górna 01;stop_position;54.3251906;18.6184956;Gdańsk;Orunia Górna - Gdańsk Południe
Platynowa 03;stop_position;54.326355;18.6113813;Gdańsk;Orunia Górna - Gdańsk Południe
Platynowa 02;stop_position;54.3266121;18.6093216;Gdańsk;Chełm
Platynowa 01;stop_position;54.3273683;18.6111271;Gdańsk;Orunia - Święty Wojciech - Lipce
Potokowa - Matemblewska 01;stop_position;54.3657134;18.5617307;Gdańsk;Brętowo
Potokowa - Matemblewska 02;stop_position;54.3664566;18.5632701;Gdańsk;Brętowo
Reymonta;stop_position;54.3828868;18.5850665;Gdańsk;Strzyża
Reymonta;stop_position;54.3829973;18.5849091;Gdańsk;Strzyża
Srebrniki 02;stop_position;54.3788073;18.5791726;Gdańsk;Wrzeszcz Górny
Srebrniki 01;stop_position;54.378985;18.5806022;Gdańsk;Wrzeszcz Górny
Cmentarz Srebrzysko 01;stop_position;54.3780414;18.5809058;Gdańsk;Wrzeszcz Górny
Cmentarz Srebrzysko 02;stop_position;54.3780918;18.5790661;Gdańsk;Wrzeszcz Górny
Słowackiego - Działki 02;stop_position;54.3709535;18.555622;Gdańsk;Brętowo
Słowackiego - Działki 01;stop_position;54.370649;18.5563064;Gdańsk;Brętowo
Uranowa 01;stop_position;54.3261188;18.6203018;Gdańsk;Orunia Górna - Gdańsk Południe
Pagórkowa;stop_position;54.3449612;18.5906535;Gdańsk;Ujeścisko - Łostowice
Pagórkowa;stop_position;54.3450944;18.5914362;Gdańsk;Ujeścisko - Łostowice
Źródlana;stop_position;54.3419339;18.5535065;Gdańsk;Jasień
Bratki 01;stop_position;54.3345572;18.671078;Gdańsk;Olszynka
Stary Rynek Oliwski 01;stop_position;54.4087963;18.557906;Gdańsk;Oliwa
Stary Rynek Oliwski 02;stop_position;54.4089235;18.5555061;Gdańsk;Oliwa
Brama Oruńska 02;stop_position;54.3393472;18.6397;Gdańsk;Orunia - Święty Wojciech - Lipce
Gęsia;stop_position;54.3308556;18.6673982;Gdańsk;Olszynka
"Hala ""Olivia"" 01";stop_position;54.4014011;18.5740381;Gdańsk;Oliwa
Hokejowa 01;stop_position;54.309666;18.5879527;Gdańsk;Orunia Górna - Gdańsk Południe
Hokejowa 02;stop_position;54.310479;18.5888842;Gdańsk;Ujeścisko - Łostowice
Liliowa;stop_position;54.3152398;18.5911515;Gdańsk;Ujeścisko - Łostowice
Liliowa;stop_position;54.3154973;18.5910487;Gdańsk;Ujeścisko - Łostowice
Miedza n/ż 01;stop_position;54.3355042;18.6619964;Gdańsk;Olszynka
Olszynka - Niwki 01;stop_position;54.3359204;18.6772006;Gdańsk;Olszynka
Przebiśniegowa;stop_position;54.3158431;18.5936905;Gdańsk;Ujeścisko - Łostowice
Przebiśniegowa;stop_position;54.3160196;18.5936475;Gdańsk;Ujeścisko - Łostowice
Przymorze SKM 01;stop_position;54.4014794;18.5765174;Gdańsk;Przymorze Małe
Rynarzewo;stop_position;54.4214792;18.5382582;Gdańsk;Oliwa
Rynarzewo;stop_position;54.4217752;18.536952;Gdańsk;Oliwa
Stoczniowców;stop_position;54.3432161;18.6317471;Gdańsk;Chełm
Wronki;stop_position;54.3422424;18.6284208;Gdańsk;Chełm
Zagony;stop_position;54.336345;18.6587399;Gdańsk;Olszynka
Łanowa I;stop_position;54.328291;18.6703918;Gdańsk;Olszynka
Czermińskiego 02;stop_position;54.3228648;18.5548344;Gdańsk;Jasień
Elfów;stop_position;54.3156967;18.5698797;Gdańsk;Ujeścisko - Łostowice
Grabowskiego;stop_position;54.3415239;18.6210194;Gdańsk;Chełm
Jaworzniaków 01;stop_position;54.3180034;18.56876;Gdańsk;Ujeścisko - Łostowice
Rębowo;stop_position;54.3221785;18.5597717;Gdańsk;Jasień
Rębowo;stop_position;54.3225193;18.5589153;Gdańsk;Jasień
Wyczółkowskiego 02;stop_position;54.3561089;18.6171259;Gdańsk;Suchanino
Wyczółkowskiego 01;stop_position;54.357222;18.619846;Gdańsk;Suchanino
Jeleniogórska;stop_position;54.3286211;18.5822832;Gdańsk;Ujeścisko - Łostowice
Jeleniogórska;stop_position;54.3288391;18.5830227;Gdańsk;Ujeścisko - Łostowice
Jabłoniowa Osiedle;stop_position;54.3317214;18.5639133;Gdańsk;Jasień
Leszczynowa 02;stop_position;54.3308554;18.5570145;Gdańsk;Jasień
Bartnicza 01;stop_position;54.3068241;18.6152072;Gdańsk;Orunia Górna - Gdańsk Południe
Niepołomicka;stop_position;54.3202507;18.5950251;Gdańsk;Ujeścisko - Łostowice
Niepołomicka;stop_position;54.3203135;18.5952142;Gdańsk;Ujeścisko - Łostowice
Olimpijska 01;stop_position;54.3055594;18.5812272;Gdańsk;Orunia Górna - Gdańsk Południe
Dom Pomocy Społecznej 01;stop_position;54.3099529;18.6201897;Gdańsk;Orunia - Święty Wojciech - Lipce
Przemian;stop_position;54.3044935;18.6043199;Gdańsk;Orunia Górna - Gdańsk Południe
Przemian 01;stop_position;54.3048721;18.6039603;Gdańsk;Orunia Górna - Gdańsk Południe
Szadółki 01;stop_position;54.3284185;18.5518042;Gdańsk;Jasień
Węzeł Lipce 02;stop_position;54.298054;18.6327525;Gdańsk;Orunia - Święty Wojciech - Lipce
Orląt Lwowskich 01;stop_position;54.3230916;18.6027435;Gdańsk;Ujeścisko - Łostowice
Orląt Lwowskich 02;stop_position;54.3231447;18.6028642;Gdańsk;Ujeścisko - Łostowice
Opolska 01;stop_position;54.405091;18.598039;Gdańsk;Przymorze Wielkie
Kołobrzeska 06;stop_position;54.4042309;18.5933817;Gdańsk;Przymorze Wielkie
Kołobrzeska 05;stop_position;54.4044637;18.5947766;Gdańsk;Przymorze Wielkie
Gdańsk, Wrzeszcz PKP;stop_position;54.3814031;18.6039936;Gdańsk;Wrzeszcz Górny
Niedźwiednik PKM 02;stop_position;54.3773701;18.5726983;Gdańsk;Wrzeszcz Górny
Niedźwiednik PKM 03;stop_position;54.3780324;18.5745893;Gdańsk;Wrzeszcz Górny
Wrzeszcz PKP;stop_position;54.3812677;18.6046161;Gdańsk;Wrzeszcz Górny
Wrzeszcz PKP 03;stop_position;54.3813324;18.6044776;Gdańsk;Wrzeszcz Górny
Wrzeszcz PKP 05;stop_position;54.3813098;18.6041896;Gdańsk;Wrzeszcz Górny
Wrzeszcz PKP 04;stop_position;54.3813954;18.6043291;Gdańsk;Wrzeszcz Górny
Lubowidzka;stop_position;54.327969;18.538216;Gdańsk;Jasień
Zabytkowa 01;stop_position;54.3798703;18.5899877;Gdańsk;Wrzeszcz Górny
Zabytkowa 02;stop_position;54.3791161;18.5877728;Gdańsk;Wrzeszcz Górny
Brzeźno Dom Zdrojowy 03;stop_position;54.4072045;18.6390075;Gdańsk;Brzeźno
Zespół Szkół Morskich 02;stop_position;54.4033038;18.6546144;Gdańsk;Nowy Port
Zespół Szkół Morskich 01;stop_position;54.4036085;18.6539283;Gdańsk;Nowy Port
Chłopska 01;stop_position;54.4083116;18.5912239;Gdańsk;Przymorze Wielkie
Biały Dwór 01;stop_position;54.408511;18.6052888;Gdańsk;Przymorze Wielkie
Biały Dwór 02;stop_position;54.4091225;18.6049486;Gdańsk;Przymorze Wielkie
Górskiego 02;stop_position;54.4187633;18.5653026;Gdańsk;Oliwa
Górskiego 01;stop_position;54.4201242;18.5651474;Gdańsk;Oliwa
Jagiellońska 01;stop_position;54.4129127;18.5915972;Gdańsk;Przymorze Wielkie
Jagiellońska 02;stop_position;54.4131999;18.5932439;Gdańsk;Przymorze Wielkie
Krynicka 01;stop_position;54.4034336;18.5878389;Gdańsk;Przymorze Małe
Krynicka 02;stop_position;54.4035498;18.5879082;Gdańsk;Przymorze Małe
Oliwa PKP 02;stop_position;54.411091;18.5726629;Gdańsk;Przymorze Małe
Oliwa PKP 04;stop_position;54.4111728;18.5722982;Gdańsk;Przymorze Małe
Oliwa PKP 03;stop_position;54.4117183;18.5740563;Gdańsk;Przymorze Małe
Oliwa 05;stop_position;54.4090838;18.5684491;Gdańsk;Oliwa
Opacka 03;stop_position;54.4152028;18.5662798;Gdańsk;Oliwa
Przymorze SKM 03;stop_position;54.4017754;18.5764166;Gdańsk;Przymorze Małe
Przymorze Wielkie;stop_position;54.4102874;18.6034046;Gdańsk;Przymorze Wielkie
Przymorze Wielkie;stop_position;54.4104722;18.6031063;Gdańsk;Przymorze Wielkie
Rybacka;stop_position;54.4242982;18.5776361;Gdańsk;Żabianka-Wejhera-Jelitkowo-Tysiąclecia
Karwieńska 01;stop_position;54.4107523;18.5487852;Gdańsk;Oliwa
Karwieńska 02;stop_position;54.4113311;18.5468573;Gdańsk;Oliwa
Abrahama 01;stop_position;54.3926551;18.583362;Gdańsk;Strzyża
Abrahama 02;stop_position;54.3938457;18.5813228;Gdańsk;Oliwa
Centrum Medycyny Inwazyjnej 02;stop_position;54.3661733;18.6192037;Gdańsk;Aniołki
Centrum Medycyny Inwazyjnej 01;stop_position;54.3663063;18.6195282;Gdańsk;Aniołki
Centrum Onkologii 04;stop_position;54.3701551;18.6272908;Gdańsk;Aniołki
Jasia i Małgosi 02;stop_position;54.3978875;18.56414;Gdańsk;Oliwa
Jasia i Małgosi 01;stop_position;54.3980687;18.5640341;Gdańsk;Oliwa
Jaśkowa Dolina 04;stop_position;54.3776637;18.6082548;Gdańsk;Wrzeszcz Górny
Lwowska 01;stop_position;54.3896863;18.6222367;Gdańsk;Wrzeszcz Dolny
Matemblewo 01;stop_position;54.3666988;18.5488136;Gdańsk;Brętowo
Meczet;stop_position;54.3901605;18.5733886;Gdańsk;VII Dwór
Meczet;stop_position;54.3905535;18.5724456;Gdańsk;VII Dwór
Mjr Hubala;stop_position;54.3863754;18.5789903;Gdańsk;Strzyża
Mjr Hubala;stop_position;54.3874249;18.5775912;Gdańsk;Strzyża
Opera Bałtycka;stop_position;54.3731195;18.6234403;Gdańsk;Wrzeszcz Górny
"SDO ""Złota Jesień""";stop_position;54.3870216;18.5988476;Gdańsk;Zaspa-Młyniec
Mostowa 01;stop_position;54.3363261;18.6485483;Gdańsk;Orunia - Święty Wojciech - Lipce
Szpital Marynarki Wojennej;stop_position;54.3939175;18.5675997;Gdańsk;VII Dwór
Teatr Miniatura / Radio Gdańsk 04;stop_position;54.3752559;18.6177157;Gdańsk;Wrzeszcz Górny
Uniwersyteckie Centrum Kliniczne 02;stop_position;54.3666657;18.6266496;Gdańsk;Aniołki
Uniwersytet Medyczny 04;stop_position;54.3674138;18.6316994;Gdańsk;Aniołki
Uniwersytet Medyczny;stop_position;54.3675758;18.6328132;Gdańsk;Aniołki
Uphagena 01;stop_position;54.3768476;18.61508;Gdańsk;Wrzeszcz Górny
Wrzeszcz PKP 01;stop_position;54.3808014;18.6064871;Gdańsk;Wrzeszcz Górny
Zakopiańska;stop_position;54.3489191;18.6170259;Gdańsk;Siedlce
Zaspa SKM;stop_position;54.389333;18.5944957;Gdańsk;Zaspa-Młyniec
Zaspa SKM;stop_position;54.3895177;18.5944388;Gdańsk;Zaspa-Młyniec
Baza Manipulacyjna 02;stop_position;54.353625;18.7570635;Gdańsk;Krakowiec - Górki Zachodnie
Baza Manipulacyjna 01;stop_position;54.3538379;18.7579;Gdańsk;Krakowiec - Górki Zachodnie
Belgradzka 03;stop_position;54.3565014;18.5874255;Gdańsk;Piecki-Migowo
Błonia;stop_position;54.3512441;18.703973;Gdańsk;Rudniki
Błonia 01;stop_position;54.3513483;18.7039264;Gdańsk;Rudniki
Dwór Ferberów 01;stop_position;54.3059293;18.6301496;Gdańsk;Orunia - Święty Wojciech - Lipce
Górki Wschodnie 01;stop_position;54.3504337;18.7930884;Gdańsk;Wyspa Sobieszewska
Górki Wschodnie 02;stop_position;54.3508336;18.7909197;Gdańsk;Wyspa Sobieszewska
Jasień - Działki;stop_position;54.3444058;18.5422975;Gdańsk;Jasień
Jasień - Działki;stop_position;54.3445448;18.5412281;Gdańsk;Jasień
Lipowa;stop_position;54.3395099;18.5762499;Gdańsk;Ujeścisko - Łostowice
Miałki Szlak 02;stop_position;54.3489102;18.6842907;Gdańsk;Rudniki
Miałki Szlak 01;stop_position;54.3492191;18.6800499;Gdańsk;Rudniki
Myśliwska;stop_position;54.3437483;18.5811856;Gdańsk;Ujeścisko - Łostowice
Myśliwska;stop_position;54.3441861;18.5819075;Gdańsk;Ujeścisko - Łostowice
Wileńska 01;stop_position;54.3618414;18.5947038;Gdańsk;Piecki-Migowo
Piekarnicza;stop_position;54.3520905;18.5917904;Gdańsk;Siedlce
Sucharskiego - PKP 02;stop_position;54.3718567;18.6833745;Gdańsk;Stogi
Wiślinka Szkoła;stop_position;54.3303184;18.8002033;Wiślinka;
Wiślinka Szkoła;stop_position;54.3306683;18.8020165;Wiślinka;
Zielony Stok;stop_position;54.3456662;18.596063;Gdańsk;Siedlce
Zielony Stok;stop_position;54.3459825;18.5982702;Gdańsk;Siedlce
Bażyńskiego 06;stop_position;54.3993354;18.5691173;Gdańsk;Oliwa
Czerwony Dwór 04;stop_position;54.4114752;18.5877988;Gdańsk;Przymorze Małe
Czerwony Dwór 05;stop_position;54.4124559;18.5889917;Gdańsk;Przymorze Wielkie
Czerwony Dwór 03;stop_position;54.4130202;18.5879177;Gdańsk;Przymorze Małe
Jaśkowa Dolina 03;stop_position;54.3784997;18.6064831;Gdańsk;Wrzeszcz Górny
Galeria Bałtycka 07;stop_position;54.3832874;18.5990849;Gdańsk;Wrzeszcz Górny
Gospody 01;stop_position;54.4197893;18.5827598;Gdańsk;Żabianka-Wejhera-Jelitkowo-Tysiąclecia
Jaśkowa Dolina 05;stop_position;54.377813;18.6068022;Gdańsk;Wrzeszcz Górny
Kujawska 02;stop_position;54.3764829;18.6702174;Gdańsk;Przeróbka
Kujawska 01;stop_position;54.3767285;18.6701533;Gdańsk;Przeróbka
Nowe Ogrody;stop_position;54.3526491;18.6421378;Gdańsk;Śródmieście
Obrońców Westerplatte 04;stop_position;54.4082807;18.5628592;Gdańsk;Oliwa
Obrońców Westerplatte 03;stop_position;54.4083548;18.5630816;Gdańsk;Oliwa
Obrońców Westerplatte 05;stop_position;54.4087105;18.5636427;Gdańsk;Oliwa
Oliwa PKP 01;stop_position;54.4111549;18.5728881;Gdańsk;Przymorze Małe
Oliwa 07;stop_position;54.409231;18.5670585;Gdańsk;Oliwa
Oliwa 06;stop_position;54.4092878;18.5674475;Gdańsk;Oliwa
Oliwa 04;stop_position;54.4091123;18.5682183;Gdańsk;Oliwa
Opera Bałtycka;stop_position;54.372874;18.6248485;Gdańsk;Wrzeszcz Górny
Pomorska - Osiedle;stop_position;54.4180449;18.5779701;Gdańsk;Żabianka-Wejhera-Jelitkowo-Tysiąclecia
Teatr Miniatura / Radio Gdańsk 03;stop_position;54.3757725;18.6162499;Gdańsk;Wrzeszcz Górny
Wojska Polskiego;stop_position;54.3870901;18.5896566;Gdańsk;Strzyża
Zakopiańska;stop_position;54.3489413;18.618887;Gdańsk;Siedlce
Zamenhofa 04;stop_position;54.3868413;18.5849102;Gdańsk;Strzyża
Zamenhofa 03;stop_position;54.3869808;18.5849857;Gdańsk;Strzyża
Żabi Kruk;stop_position;54.3464412;18.6515889;Gdańsk;Śródmieście
Żabi Kruk;stop_position;54.3466796;18.6516493;Gdańsk;Śródmieście
Bażyńskiego 07;stop_position;54.3989605;18.5672598;Gdańsk;Oliwa
Krasickiego 01;stop_position;54.4063569;18.6436964;Gdańsk;Brzeźno
Brzeźno Dom Zdrojowy 02;stop_position;54.4073171;18.6385279;Gdańsk;Brzeźno
Brzeźno Dom Zdrojowy 01;stop_position;54.4073395;18.6380755;Gdańsk;Brzeźno
Bysewo 05;stop_position;54.3748512;18.463601;Gdańsk;Kokoszki
Krasickiego 04;stop_position;54.4059782;18.644666;Gdańsk;Brzeźno
Latarnia Morska;stop_position;54.4046293;18.6552227;Gdańsk;Nowy Port
Latarnia Morska;stop_position;54.4047041;18.6559482;Gdańsk;Nowy Port
Norblina 02;stop_position;54.3881215;18.5715219;Gdańsk;VII Dwór
Polsat Plus Arena Gdańsk;stop_position;54.3873878;18.6489883;Gdańsk;Letnica
Plac Wolności 01;stop_position;54.3990549;18.6700066;Gdańsk;Nowy Port
Swojska 01;stop_position;54.379581;18.6344484;Gdańsk;Letnica
Marynarki Polskiej 02;stop_position;54.3983659;18.6661477;Gdańsk;Nowy Port
Brama Wyżynna 05;stop_position;54.3505333;18.6463073;Gdańsk;Śródmieście
Brama Wyżynna 03;stop_position;54.3506975;18.6463662;Gdańsk;Śródmieście
Łostowice Świętokrzyska 04;stop_position;54.3226583;18.6061083;Gdańsk;Orunia Górna - Gdańsk Południe
Łostowice Świętokrzyska 06;stop_position;54.3232782;18.6061866;Gdańsk;Orunia Górna - Gdańsk Południe
Żaglowa - AmberExpo;stop_position;54.382555;18.6387737;Gdańsk;Letnica
Beniowskiego 02;stop_position;54.4094534;18.5769208;Gdańsk;Przymorze Małe
Bora Komorowskiego 04;stop_position;54.408891;18.5872465;Gdańsk;Przymorze Małe
Dworzec Główny 13;stop_position;54.3547637;18.6456187;Gdańsk;Śródmieście
Dworzec Główny 11;stop_position;54.3549569;18.6456677;Gdańsk;Śródmieście
Dworzec Główny;stop_position;54.3551143;18.6457076;Gdańsk;Śródmieście
Dworzec Główny 07;stop_position;54.3552875;18.6457516;Gdańsk;Śródmieście
Dworzec Główny 10;stop_position;54.3555316;18.6453894;Gdańsk;Śródmieście
Dworzec Główny 05;stop_position;54.3554893;18.6458028;Gdańsk;Śródmieście
Twierdza Wisłoujście;stop_position;54.3914572;18.6796648;Gdańsk;Przeróbka
Twierdza Wisłoujście;stop_position;54.3915757;18.6799602;Gdańsk;Przeróbka
Skrajna;stop_position;54.3490697;18.6123863;Gdańsk;Siedlce
Skrajna;stop_position;54.3490105;18.6129127;Gdańsk;Siedlce
Siedlce 03;stop_position;54.3482958;18.6065044;Gdańsk;Siedlce
Siedlce 02;stop_position;54.3481254;18.6070265;Gdańsk;Siedlce
Siedlce 01;stop_position;54.3482489;18.6071598;Gdańsk;Siedlce
Siedlce 05;stop_position;54.3483116;18.6070135;Gdańsk;Siedlce
Siedlce 04;stop_position;54.3481633;18.6072261;Gdańsk;Siedlce
Brętowo PKM 03;stop_position;54.3640524;18.573601;Gdańsk;Piecki-Migowo
Matarnia PKM 02;stop_position;54.3731095;18.5059339;Gdańsk;Matarnia
Budapesztańska;stop_position;54.3559825;18.5786958;Gdańsk;Piecki-Migowo
Budapesztańska;stop_position;54.3561471;18.5787656;Gdańsk;Piecki-Migowo
Warneńska 01;stop_position;54.3576445;18.5830886;Gdańsk;Piecki-Migowo
Warneńska 02;stop_position;54.3576779;18.5823548;Gdańsk;Piecki-Migowo
Jelitkowo 02;stop_position;54.4231923;18.5927288;Gdańsk;Żabianka-Wejhera-Jelitkowo-Tysiąclecia
Port Lotniczy 02;stop_position;54.3827319;18.4677724;Gdańsk;Matarnia
Port Lotniczy 03;stop_position;54.3828029;18.4678207;Gdańsk;Matarnia
Port Lotniczy 04;stop_position;54.3828806;18.4678747;Gdańsk;Matarnia
Wiślinka Piaskowa;stop_position;54.3385504;18.8235306;Wiślinka;
Sobieszewko 01;stop_position;54.3285347;18.843926;Gdańsk;Wyspa Sobieszewska
Sobieszewska Pastwa 1 02;stop_position;54.3193629;18.8651921;Gdańsk;Wyspa Sobieszewska
Port Lotniczy 01;stop_position;54.3826562;18.4677208;Gdańsk;Matarnia
Biblioteka Główna UG 02;stop_position;54.3972508;18.5773516;Gdańsk;Oliwa
Biblioteka Główna UG 01;stop_position;54.3987902;18.5760285;Gdańsk;Oliwa
Falowa 01;stop_position;54.3430436;18.8360478;Gdańsk;Wyspa Sobieszewska
Falowa 02;stop_position;54.3430547;18.835905;Gdańsk;Wyspa Sobieszewska
Kanałowa 01;stop_position;54.342783;18.8391645;Gdańsk;Wyspa Sobieszewska
Kanałowa 02;stop_position;54.3427852;18.839441;Gdańsk;Wyspa Sobieszewska
Katarzynki;stop_position;54.3542667;18.6536823;Gdańsk;Śródmieście
Katownia;stop_position;54.3504658;18.6476937;Gdańsk;Śródmieście
Kwiatowa 02;stop_position;54.3392469;18.8946788;Gdańsk;Wyspa Sobieszewska
Kwiatowa 01;stop_position;54.3393786;18.8936352;Gdańsk;Wyspa Sobieszewska
Lazurowa 02;stop_position;54.3413654;18.8740582;Gdańsk;Wyspa Sobieszewska
Lazurowa 01;stop_position;54.3416106;18.8728799;Gdańsk;Wyspa Sobieszewska
Na Szańcach 02;stop_position;54.3447298;18.6730908;Gdańsk;Olszynka
Teatr Szekspirowski;stop_position;54.3484051;18.6472579;Gdańsk;Śródmieście
Plac Solidarności 03;stop_position;54.3584943;18.6473548;Gdańsk;Śródmieście
Plac Solidarności 04;stop_position;54.3593364;18.6476588;Gdańsk;Śródmieście
Na Zaspę;stop_position;54.4018626;18.6652689;Gdańsk;Nowy Port
Nowy Port Szaniec Zachodni 02;stop_position;54.396151;18.6728191;Gdańsk;Nowy Port
Nowy Port Szaniec Zachodni 01;stop_position;54.3962651;18.673519;Gdańsk;Nowy Port
Przychodnia 01;stop_position;54.4022047;18.6699422;Gdańsk;Nowy Port
Na Zaspę 01;stop_position;54.4014261;18.6646313;Gdańsk;Nowy Port
Rybołowców 01;stop_position;54.4026721;18.6655568;Gdańsk;Nowy Port
Władysława IV 01;stop_position;54.3987054;18.6743135;Gdańsk;Nowy Port
Gronostajowa;stop_position;54.3452259;18.547425;Gdańsk;Jasień
Jasień PKM 01;stop_position;54.3531766;18.5500166;Gdańsk;Jasień
Jasieńska;stop_position;54.34848;18.5494784;Gdańsk;Jasień
Jasieńska;stop_position;54.3495401;18.5524605;Gdańsk;Jasień
Jasieńska;stop_position;54.3496884;18.5495422;Gdańsk;Jasień
Jodowa 01;stop_position;54.3459122;18.8204278;Gdańsk;Wyspa Sobieszewska
Jodowa 02;stop_position;54.3461684;18.8197748;Gdańsk;Wyspa Sobieszewska
Kolonia Uroda;stop_position;54.3923141;18.622341;Gdańsk;Wrzeszcz Dolny
Kolonia Uroda;stop_position;54.39265;18.6223998;Gdańsk;Wrzeszcz Dolny
Kościuszki;stop_position;54.3880085;18.6223745;Gdańsk;Wrzeszcz Dolny
Nadwiślańska 02;stop_position;54.348904;18.8039343;Gdańsk;Wyspa Sobieszewska
Nadwiślańska 01;stop_position;54.3489305;18.8036039;Gdańsk;Wyspa Sobieszewska
Nowy Port Góreckiego 01;stop_position;54.4000499;18.6709981;Gdańsk;Nowy Port
Ornitologów 01;stop_position;54.3491334;18.7987129;Gdańsk;Wyspa Sobieszewska
Ornitologów 02;stop_position;54.3492346;18.7976437;Gdańsk;Wyspa Sobieszewska
Mostowa 02;stop_position;54.3352694;18.6495083;Gdańsk;Orunia - Święty Wojciech - Lipce
Sobieszewska 02;stop_position;54.3469636;18.8158469;Gdańsk;Wyspa Sobieszewska
Sobieszewska 01;stop_position;54.3471488;18.813828;Gdańsk;Wyspa Sobieszewska
Tęczowa 02;stop_position;54.3481091;18.8106703;Gdańsk;Wyspa Sobieszewska
Tęczowa 01;stop_position;54.348452;18.8092214;Gdańsk;Wyspa Sobieszewska
Benzynowa 01;stop_position;54.3416531;18.7528441;Gdańsk;Rudniki
Benzynowa 02;stop_position;54.3417171;18.7530924;Gdańsk;Rudniki
Makro 04;stop_position;54.3389124;18.7382538;Przejazdowo;
Michałki 02;stop_position;54.347058;18.7177715;Gdańsk;Rudniki
Michałki 01;stop_position;54.3471592;18.7178756;Gdańsk;Rudniki
Naftowa 01;stop_position;54.3428554;18.7696168;Gdańsk;Rudniki
Oczyszczalnia 02;stop_position;54.3421122;18.757214;Gdańsk;Rudniki
Oczyszczalnia 01;stop_position;54.3421168;18.7579118;Gdańsk;Rudniki
Olszynka - Szkoła 02;stop_position;54.3418317;18.6691711;Gdańsk;Olszynka
Płońska 01;stop_position;54.3470001;18.7739332;Gdańsk;Rudniki
Płońska 02;stop_position;54.3469986;18.7740701;Gdańsk;Rudniki
Rafineria 02;stop_position;54.3431978;18.7234828;Gdańsk;Rudniki
Rafineria 01;stop_position;54.3439819;18.7217873;Gdańsk;Rudniki
Tarcice 02;stop_position;54.3512132;18.7107899;Gdańsk;Rudniki
Tarcice 01;stop_position;54.3522882;18.7085347;Gdańsk;Rudniki
Zagroble 02;stop_position;54.3468682;18.7854499;Gdańsk;Rudniki
Zagroble 01;stop_position;54.3468912;18.7851028;Gdańsk;Rudniki
Chłodna 02;stop_position;54.3433395;18.6627064;Gdańsk;Śródmieście
Dobra 01;stop_position;54.3412307;18.6553196;Gdańsk;Śródmieście
Dworska;stop_position;54.4042173;18.62726;Gdańsk;Brzeźno
Dworska;stop_position;54.4043447;18.6256004;Gdańsk;Brzeźno
Grudziądzka 05;stop_position;54.3968247;18.622176;Gdańsk;Wrzeszcz Dolny
PCK 01;stop_position;54.4044583;18.6325625;Gdańsk;Brzeźno
PCK 02;stop_position;54.4047478;18.6316024;Gdańsk;Brzeźno
Uczniowska;stop_position;54.4004306;18.6256365;Gdańsk;Brzeźno
Wróbla 01;stop_position;54.3406105;18.6579678;Gdańsk;Śródmieście
Biała 01;stop_position;54.3780436;18.6152339;Gdańsk;Wrzeszcz Górny
al. Płażyńskiego;stop_position;54.4011327;18.6236776;Gdańsk;Brzeźno
al. Płażyńskiego;stop_position;54.401309;18.622131;Gdańsk;Zaspa-Rozstaje
Brak nazwy;stop_position;54.4027461;18.6233853;Gdańsk;Brzeźno
al. Płażyńskiego;stop_position;54.4031032;18.6218901;Gdańsk;Zaspa-Rozstaje
Łanowa II;stop_position;54.326176;18.6728598;Gdańsk;Olszynka
Łanowa III;stop_position;54.3223407;18.6773213;Gdańsk;Olszynka
Łanowa IV;stop_position;54.3190999;18.6811033;Gdańsk;Olszynka
al. Płażyńskiego;stop_position;54.4016139;18.6224081;Gdańsk;Zaspa-Rozstaje
al. Płażyńskiego;stop_position;54.4027165;18.6231093;Gdańsk;Brzeźno
Gdańska;stop_position;54.4023503;18.6308474;Gdańsk;Brzeźno
Grudziądzka;stop_position;54.3961508;18.6223032;Gdańsk;Wrzeszcz Dolny
Grudziądzka;stop_position;54.3964023;18.6223614;Gdańsk;Wrzeszcz Dolny
Sternicza;stop_position;54.404669;18.6345052;Gdańsk;Brzeźno
Uczniowska;stop_position;54.4002647;18.6263324;Gdańsk;Brzeźno
Gdańsk Przymorze - Uniwersytet;stop_position;54.4005673;18.576604;Gdańsk;Oliwa
Buszkowy;stop_position;54.2308355;18.4329029;Buszkowy;
Kolbudy;stop_position;54.2704141;18.4703507;Kolbudy;
Piekarnicza;stop_position;54.351549;18.5921624;Gdańsk;Siedlce
Belgradzka 01;stop_position;54.355539;18.5884474;Gdańsk;Piecki-Migowo
Belgradzka 02;stop_position;54.355733;18.588347;Gdańsk;Piecki-Migowo
Chopina 01;stop_position;54.2627028;18.6362087;Pruszcz Gdański;Śródmieście
Zastawna 02;stop_position;54.2458225;18.6226415;Pruszcz Gdański;
Powstańców Warszawy/Gałczyńskiego 01;stop_position;54.2550256;18.6722264;Pruszcz Gdański;Osiedle Wschód
Rotmanka - Rondo 01;stop_position;54.2708882;18.6167728;Rotmanka;
Kolumba 02;stop_position;54.3604119;18.5774028;Gdańsk;Piecki-Migowo
Kolumba 01;stop_position;54.3602121;18.5775805;Gdańsk;Piecki-Migowo
Bażyńskiego 04;stop_position;54.3995523;18.5678336;Gdańsk;Oliwa
Kościuszki 04;stop_position;54.3875629;18.622263;Gdańsk;Wrzeszcz Dolny
Ukośna 02;stop_position;54.3109429;18.6296477;Gdańsk;Orunia - Święty Wojciech - Lipce
Ukośna 01;stop_position;54.3116182;18.6297262;Gdańsk;Orunia - Święty Wojciech - Lipce
Uniwersytet Gdański;stop_position;54.3956478;18.5715813;Gdańsk;Oliwa
Wyspiańskiego;stop_position;54.3764203;18.6234083;Gdańsk;Wrzeszcz Dolny
Brama Żuławska;stop_position;54.3474471;18.6694814;Gdańsk;Śródmieście
Brama Żuławska;stop_position;54.3474834;18.6689381;Gdańsk;Śródmieście
Chełm Cienista 01;stop_position;54.3383064;18.6268372;Gdańsk;Chełm
Os. Świętokrzyskie 02;stop_position;54.3136346;18.5710142;Gdańsk;Ujeścisko - Łostowice
Os. Świętokrzyskie 01;stop_position;54.313791;18.5713573;Gdańsk;Ujeścisko - Łostowice
Os. Świętokrzyskie 03;stop_position;54.3140924;18.569726;Gdańsk;Ujeścisko - Łostowice
Przejazdowo Sezonowa 71;stop_position;54.3323617;18.7439073;Przejazdowo;
Przejazdowo Sezonowa 04;stop_position;54.3300342;18.7444718;Przejazdowo;
Przejazdowo Łąkowa 02;stop_position;54.3220713;18.7507123;Przejazdowo;
Przejazdowo Łąkowa 01;stop_position;54.3221185;18.7502363;Przejazdowo;
Wieżycka;stop_position;54.3180482;18.5868421;Gdańsk;Ujeścisko - Łostowice
Wieżycka;stop_position;54.3180893;18.5870015;Gdańsk;Ujeścisko - Łostowice
Batalionów Chłopskich 02;stop_position;54.2450925;18.630371;Pruszcz Gdański;
Słowackiego 01;stop_position;54.2624578;18.6609343;Pruszcz Gdański;Osiedle Wschód
Urząd Skarbowy 01;stop_position;54.2493628;18.6379698;Pruszcz Gdański;Śródmieście
Grudziądzka 03;stop_position;54.3976385;18.6221689;Gdańsk;Wrzeszcz Dolny
Wiczlino - Działki I;stop_position;54.4819645;18.437778;Gdynia;Chwarzno-Wiczlino
Okrężna (n/ż);stop_position;54.4469526;18.5515801;Sopot;
Pruszcz Gd., Dworzec Kolejowy;stop_position;54.2582481;18.6450816;Pruszcz Gdański;Śródmieście
Karwiny PKM 04;stop_position;54.4702017;18.5094708;Gdynia;Mały Kack
Zastawna/Rondo 29;stop_position;54.2400872;18.6136836;Pruszcz Gdański;
Zakoniczyn 01;stop_position;54.3197759;18.577219;Gdańsk;Ujeścisko - Łostowice
Ergo Arena 02;stop_position;54.4262908;18.5761185;Sopot;
Ergo Arena 01;stop_position;54.426647;18.5758924;Sopot;
Łokietka 02;stop_position;54.4305611;18.5736105;Sopot;
Brak nazwy;stop_position;54.4326183;18.5735962;Sopot;
Polna 03;stop_position;54.4344193;18.5777641;Sopot;
Nadwodna 01;stop_position;54.4227838;18.5641285;Gdańsk;Oliwa
Jaworowa 02;stop_position;54.3388031;18.5597549;Gdańsk;Jasień
Jeziorowa 02;stop_position;54.3346151;18.5595268;Gdańsk;Jasień
Jeziorowa 01;stop_position;54.3327737;18.5592313;Gdańsk;Jasień
Jaworowa 01;stop_position;54.338301;18.5596534;Gdańsk;Jasień
Chopina/Rondo 02;stop_position;54.2614264;18.6527403;Pruszcz Gdański;Osiedle Wschód
Bielkowo;stop_position;54.276834;18.5027366;Bielkowo;
Sopot Przylesie;stop_position;54.4478456;18.5406072;Sopot;
Wybickiego 01;stop_position;54.4372957;18.5575657;Sopot;
Małopolska 02;stop_position;54.4556112;18.5433954;Sopot;
Łużycka 03;stop_position;54.4561064;18.5505986;Sopot;
Opera Bałtycka 04;stop_position;54.3725167;18.6232913;Gdańsk;Wrzeszcz Górny
Ciołkowskiego 02;stop_position;54.3953765;18.6176638;Gdańsk;Wrzeszcz Dolny
Jaworzniaków 02;stop_position;54.3178368;18.5690106;Gdańsk;Ujeścisko - Łostowice
Kacze Buki 04;stop_position;54.4555952;18.4538641;Gdynia;Wielki Kack
"Hala ""Olivia"" 02";stop_position;54.4019277;18.5731706;Gdańsk;Oliwa
Witomino Sosnowa 01;stop_position;54.4984608;18.4941234;Gdynia;Witomino
Olsztyńska 01;stop_position;54.4063476;18.6046614;Gdańsk;Przymorze Wielkie
Cedry Małe, Stacja paliw;stop_position;54.2747393;18.8673893;Cedry Małe;
Wagnera 01;stop_position;54.3558149;18.6137202;Gdańsk;Suchanino
Nowy Port Oliwska 01;stop_position;54.4015711;18.6744556;Gdańsk;Nowy Port
Kasztanowa;stop_position;54.4040847;18.6611769;Gdańsk;Nowy Port
Kasztanowa;stop_position;54.4039564;18.6614066;Gdańsk;Nowy Port
Kielecka 01;stop_position;54.3339835;18.5921989;Gdańsk;Ujeścisko - Łostowice
Chopina 01;stop_position;54.4421581;18.5711912;Sopot;
Gdańsk Brętowo;stop_position;54.3652521;18.5735934;Gdańsk;Brętowo
Gdańsk Niedźwiednik;stop_position;54.3780951;18.5720736;Gdańsk;Wrzeszcz Górny
Gdańsk Niedźwiednik;stop_position;54.3781067;18.5720152;Gdańsk;Wrzeszcz Górny
Brętowo PKM 05;stop_position;54.3655346;18.5739613;Gdańsk;Brętowo
Jelitkowo Kapliczna 03;stop_position;54.4215619;18.6020137;Gdańsk;Żabianka-Wejhera-Jelitkowo-Tysiąclecia
Jana z Kolna 01;stop_position;54.3616587;18.6452737;Gdańsk;Śródmieście
Kampinoska 01;stop_position;54.3162268;18.603275;Gdańsk;Orunia Górna - Gdańsk Południe
Powstańców Warszawy 02;stop_position;54.2569592;18.659368;Pruszcz Gdański;Osiedle Wschód
Twierdza Wisłoujście;stop_position;54.3936249;18.6774544;Gdańsk;Przeróbka
Nabrzeże Zbożowe;stop_position;54.3943515;18.6731186;Gdańsk;Przeróbka
Brzeźno;stop_position;54.4099195;18.6596811;Gdańsk;Nowy Port
Wielki Kack Fikakowo 01;stop_position;54.4655357;18.483455;Gdynia;Wielki Kack
Wielki Kack Fikakowo 02;stop_position;54.4657103;18.4834133;Gdynia;Wielki Kack
23 Marca;stop_position;54.4481227;18.5436072;Sopot;
Mały Kack Strzelców 01;stop_position;54.4777654;18.5032488;Gdynia;Mały Kack
Chwaszczyno Poczta 06;stop_position;54.4430439;18.4092769;Chwaszczyno;
Chwaszczyno Poczta 73;stop_position;54.4429862;18.4113805;Chwaszczyno;
Gdańsk Osowa;stop_position;54.4224377;18.4526044;Gdańsk;Osowa
23 Marca;stop_position;54.4481305;18.5443284;Sopot;
Gdańsk Strzyża;stop_position;54.3917025;18.5786734;Gdańsk;Strzyża
Gdańsk Strzyża;stop_position;54.3916687;18.5787096;Gdańsk;Strzyża
Uniwersytet Gdański;stop_position;54.3952806;18.5723045;Gdańsk;Oliwa
Zaroślak 01;stop_position;54.3416179;18.6425075;Gdańsk;Orunia - Święty Wojciech - Lipce
Stare Szkoty 01;stop_position;54.3359771;18.636515;Gdańsk;Orunia - Święty Wojciech - Lipce
Brama Oruńska 01;stop_position;54.3398379;18.6402865;Gdańsk;Orunia - Święty Wojciech - Lipce
Nowy Świat;stop_position;54.4186747;18.4504407;Gdańsk;Osowa
Zeusa;stop_position;54.4227167;18.4618402;Gdańsk;Osowa
Łowicka Szkoła 01;stop_position;54.4846442;18.5268035;Gdynia;Mały Kack
Zabornia;stop_position;54.3385415;18.5718272;Gdańsk;Ujeścisko - Łostowice
Zabornia;stop_position;54.3377171;18.570803;Gdańsk;Jasień
Zabornia;stop_position;54.3381726;18.5735932;Gdańsk;Ujeścisko - Łostowice
Zabornia;stop_position;54.3366646;18.5722266;Gdańsk;Ujeścisko - Łostowice
Łabędzia;stop_position;54.347261;18.5725265;Gdańsk;Piecki-Migowo
Hucisko 04;stop_position;54.351929;18.6444692;Gdańsk;Śródmieście
Redłowo SKM 03;stop_position;54.4920228;18.53891;Gdynia;Redłowo
Sopot Kamienny Potok;stop_position;54.4574735;18.553742;Sopot;
Sopot Kamienny Potok;stop_position;54.4575891;18.5534913;Sopot;
Gdynia Redłowo;stop_position;54.4915651;18.5382504;Gdynia;Redłowo
Gdynia Redłowo;stop_position;54.4915904;18.5384472;Gdynia;Redłowo
Gdynia Orłowo;stop_position;54.4767054;18.5488543;Gdynia;Orłowo
Gdynia Orłowo;stop_position;54.4767684;18.5490784;Gdynia;Orłowo
Sopot;stop_position;54.4400303;18.5623595;Sopot;
Sopot;stop_position;54.4400522;18.5625628;Sopot;
Sopot Wyścigi;stop_position;54.4316748;18.5650246;Sopot;
Sopot Wyścigi;stop_position;54.4316936;18.5652042;Sopot;
Gdańsk Żabianka - AWFiS;stop_position;54.4206183;18.5686392;Gdańsk;Oliwa
Gdańsk Żabianka - AWFiS;stop_position;54.4206063;18.568424;Gdańsk;Oliwa
Gdańsk Oliwa;stop_position;54.409614;18.5719845;Gdańsk;Oliwa
Gdańsk Oliwa;stop_position;54.4096329;18.5721924;Gdańsk;Oliwa
Gdańsk Zaspa;stop_position;54.3898514;18.5915048;Gdańsk;Zaspa-Młyniec
Gdańsk Zaspa;stop_position;54.3897827;18.5913923;Gdańsk;Zaspa-Młyniec
Gdańsk Wrzeszcz;stop_position;54.382116;18.6054213;Gdańsk;Wrzeszcz Górny
Gdańsk Wrzeszcz;stop_position;54.3819985;18.6053374;Gdańsk;Wrzeszcz Górny
Gdańsk Politechnika;stop_position;54.3742475;18.6274559;Gdańsk;Aniołki
Gdańsk Stocznia;stop_position;54.3646044;18.6417046;Gdańsk;Młyniska
Gdańsk Stocznia;stop_position;54.3646448;18.6418962;Gdańsk;Młyniska
Gdańsk Główny;stop_position;54.35676;18.644267;Gdańsk;Śródmieście
Gdańsk Główny;stop_position;54.3567515;18.6444723;Gdańsk;Śródmieście
Gdańsk Śródmieście;stop_position;54.3469191;18.6444696;Gdańsk;Śródmieście
Filipkowskiego 01;stop_position;54.4870998;18.4300624;Gdynia;Chwarzno-Wiczlino
Wiczlińska - Śliska;stop_position;54.4847461;18.4358756;Gdynia;Chwarzno-Wiczlino
Kwiatkowskiej;stop_position;54.4930018;18.4338779;Gdynia;Chwarzno-Wiczlino
Bryla;stop_position;54.4954647;18.4371784;Gdynia;Chwarzno-Wiczlino
Nałkowskiej 04;stop_position;54.4688421;18.4993517;Gdynia;Wielki Kack
Chwaszczyno Oliwska 79;stop_position;54.4420877;18.4462405;Chwaszczyno;Gdańsk
Chwaszczyno Oliwska 02;stop_position;54.4422912;18.4446366;Chwaszczyno;Gdańsk
Iławska;stop_position;54.4392566;18.459067;Gdańsk;Osowa
Iławska;stop_position;54.4395191;18.4584124;Gdańsk;Osowa
Myśliborska;stop_position;54.4417414;18.4526968;Gdańsk;Osowa
Myśliborska;stop_position;54.4418591;18.4512228;Gdańsk;Osowa
Pólnicy;stop_position;54.3404502;18.5591316;Gdańsk;Jasień
Pólnicy;stop_position;54.339607;18.561189;Gdańsk;Jasień
Damroki;stop_position;54.3390124;18.5633232;Gdańsk;Jasień
Sobieszewo 01;stop_position;54.3436477;18.8261956;Gdańsk;Wyspa Sobieszewska
Dębinki 01;stop_position;54.363374;18.63182;Gdańsk;Aniołki
Banino Szkoła 02;stop_position;54.391387;18.410472;Banino;
Pomorskie Szkoły Rzemiosł 03;stop_position;54.3606579;18.6136992;Gdańsk;Suchanino
Brama Oliwska 04;stop_position;54.3626523;18.639961;Gdańsk;Aniołki
Traugutta 03;stop_position;54.3681087;18.6294102;Gdańsk;Aniołki
Sopot;stop_position;54.4400243;18.5622837;Sopot;
Ujeścisko 04;stop_position;54.3318808;18.5711892;Gdańsk;Ujeścisko - Łostowice
Makro 73;stop_position;54.3396279;18.7355495;Przejazdowo;
Banino, Borowiecka 01;stop_position;54.3931213;18.4029967;Banino;
